School,FullAddress,Latitude,Longitude
"Laurel Hill Colaiste FCJ, South Circular Road, Limerick","Laurel Hill Ave, S Circular Rd, Limerick, V94 CR26, Ireland",52.6549898,-8.6363918
"Colaiste Iosagain, Booterstown, Co Dublin","Stillorgan Rd, Booterstown, Co. Dublin, Ireland",53.3020994,-6.2063058
"Loreto College, St Stephen''s Green, Dublin 2","53 St Stephen's Green, Dublin 2, D02 XE79, Ireland",53.3368283,-6.2563519
"Presentation Brothers College, Mardyke, Cork","Mardyke Walk, Mardyke, Cork, Ireland",51.8975894,-8.4850617
"Gonzaga College, Ranelagh, Dublin 6","Gonzaga College SJ, Sandford Road, (via Sandford Close or Park Lane), Ranelagh, Dublin, D06 KF95, Ireland",53.3169236,-6.2492744
"The Teresian School, Donnybrook, Dublin 4","12 Stillorgan Rd, Dublin 4, D04 E9X5, Ireland",53.3149227,-6.2279599
"Scoil Mhuire, Sidney Place, Cork","2 Sidney Pl, Wellington Rd, Victorian Quarter, Cork, Ireland",51.9022221,-8.4679331
"Muckross Park College, Donnybrook, Dublin 4","Marlborough Road, Donnybrook, Dublin 4, Ireland",53.321763,-6.2424904
"Mount Anville Secondary School, Goatstown, Dublin 14","14 Mount Anville Rd, Mountanville, Dublin, D14 AW90, Ireland",53.2930822,-6.2231361
"Colaiste na Coiribe, Knocknacarra, Galway","Knocknacarra, Ballymoneen Rd, Ballyburke, Galway, H91 RC97, Ireland",53.2695159,-9.1236778
"Holy Child School Killiney, Co Dublin, ","Military Rd, Killiney, Co. Dublin, Ireland",53.2531446,-6.114055
"Blackrock College, Blackrock, Co Dublin (B)","Main St, Blackrock, Co. Dublin, Ireland",53.3009095,-6.1757952
"Castleknock College, Castleknock, Dublin 15","College Rd, Castleknock, Dublin, Co. Dublin, D15 PD95, Ireland",53.3682815,-6.3683856
"Sandford Park School, Ranelagh, Dublin 6","Ranelagh, Dublin 6, Ireland",53.3228313,-6.2497797
"St Conleth''s College, Ballsbridge, Dublin 4","28 Clyde Rd, Dublin, D04 FT98, Ireland",53.3278984,-6.2409483
"Colaiste Eoin, Booterstown, Co Dublin","Stillorgan Rd, Booterstown, Blackrock, Co. Dublin, Ireland",53.3025696,-6.2049226
"Christian Brothers College, Sidney Hill, Cork","10a Wellington Rd, Cork, Ireland",51.9036375,-8.4681664
"Loreto High School Beaufort, Rathfarnham, Dublin 14","Grange Rd, Rathfarnham, Dublin, Ireland",53.2921079,-6.2832087
"Salerno Jesus and Mary Secondary School, Salthill,  Galway","Threadneedle Rd, Salthill, Co. Galway, Ireland",53.2638001,-9.0895561
"Belvedere College, Great Denmark Street, Dublin 1","6 Denmark Street Great, Rotunda, Dublin 1, D01 TK25, Ireland",53.3556691,-6.2616266
"Mount Sackville Secondary School, Chapelizod, Dublin 20","Sisters of St. Joseph of Cluny, Chapelizod, Castleknock, Dublin 20, Co. Dublin, Ireland",53.3599162,-6.3584826
"Colaiste Iognaid SJ, Sea Road, Galway","Sea Rd, Galway, Ireland",53.2693581,-9.0616608
"Loreto College, Foxrock, Dublin 18","Springfield Park, Deansgrange, Dublin 18, D18 FT21, Ireland",53.2728922,-6.1769481
"St Andrew''s College, Blackrock, Co Dublin","55 Booterstown Ave, Williamstown, Dublin, A94 P2N7, Ireland",53.306436,-6.1976358
"Holy Faith Secondary School, Clontarf, Dublin 3","178-180 Clontarf Rd, Clontarf, Dublin, D03 VP04, Ireland",53.360006,-6.1978615
"Alexandra College, Milltown, Dublin 6 (B)","Milltown Rd, Rathmines, Milltown, Co. Dublin, Ireland",53.3109345,-6.2483265
"Mount Mercy College, Model Farm Road, Cork","Model Farm Rd, Cork, Ireland",51.8900721,-8.5169905
"St Mary''s College, Rathmines, Dublin 6","73-79 Rathmines Rd Lower, Rathmines, Dublin 6, D06 CH79, Ireland",53.3274498,-6.2672497
"St Michael''s College, Ailesbury Road, Dublin 4","Ailesbury Rd, Dublin 4, D04 A373, Ireland",53.3193092,-6.2174102
"St Gerard''s School, Bray, Co Wicklow","Thornhill Rd, Oldconnaught, Bray, Co. Dublin, Ireland",53.20457,-6.135569
"Clongowes Wood College, Clane, Co Kildare (B)","Kilcock Road, Castlebrown, Clane, Co. Kildare, W91 DN40, Ireland",53.3114357,-6.6841632
"St Joseph of Cluny, Killiney, Co Dublin","Avondale Rd, Ballinclea, Killiney, Co. Dublin, Ireland",53.2708551,-6.1240119
"Rathdown School, Glenageary, Co Dublin (B)","Glenageary Rd Upper, Glenageary, Dublin, A96 H5N3, Ireland",53.27728,-6.1307468
"Glenstal Abbey School, Murroe, Co Limerick (B)","Glenstal Abbey, Murroe, Co. Limerick, V94 HC84, Ireland",52.6606116,-8.3889565
"St Kilian''s Deutsche Schule, Clonskeagh, Dublin 14","14 Roebuck Rd, Roebuck, Dublin, D14 P7F2, Ireland",53.3039202,-6.2298838
"Rosemont School, Sandyford, Dublin 18","Enniskerry Rd, Sandyford, Dublin, Ireland",53.2610648,-6.2287431
"Colaiste Ide, Dingle, Co Kerry (G) (B)","Burnham East, Co. Kerry, Ireland",52.1267255,-10.3048657
"Ursuline Secondary School, Thurles, Co Tipperary (B)","Mitchel St, Monacocka, Thurles, Co. Tipperary, Ireland",52.6814189,-7.8070551
"The High School, Rathgar, Dublin 6","Danum, Zion Rd, Rathgar, Dublin 6, D06 YR68, Ireland",53.3059009,-6.2729587
"Crescent College Comprehensive, Dooradoyle, Limerick","Dooradoyle Rd, Dooradoyle, Co. Limerick, Ireland",52.6366286,-8.640789
"Gaelcholaiste Luimnigh, Limerick\n, ","Sir Harry's Mall, Limerick, Ireland",52.6665912,-8.6201342
"Dominican College, Drumcondra, Dublin 9","204 Griffith Ave, Ballybough, Dublin 9, D09 W4C8, Ireland",53.373982,-6.2482794
"Loreto Abbey Secondary School, Dalkey, Co Dublin","Loreto Ave, Harbour Rd, Dalkey, Co. Dublin, A96 YC81, Ireland",53.2795181,-6.0996002
"St Mary''s Secondary School, Mallow, Co Cork","Mallow, Co. Cork, Ireland",52.141404,-8.641123
"Gaelcholaiste na Mara, Arklow, Co Wicklow","Pearse Park, Yardland, Arklow, Co. Wicklow, Ireland",52.8013701,-6.1669672
"Colaiste Cois Life, Lucan,  Co Dublin","Coláiste Cois Life, Castle Rd, Glebe, Lucan, Co. Dublin, Ireland",53.3496817,-6.4356457
"St Wolstan''s Community School, Celbridge, Co Kildare","Shackleton Rd, Ballymakealy Lower, Celbridge, Co. Kildare, Ireland",53.3339478,-6.5612202
"Regina Mundi College, Douglas Road, Cork","Ballinlough, Cork, Ireland",51.8835043,-8.4437439
"Ardscoil Ris, North Circular Road, Limerick","Ardscoil Rís, N Circular Rd, Limerick, Co. Limerick, V94 V602, Ireland",52.665479,-8.6408913
"Colaiste Pobail Osrai, Ormonde Road, Kilkenny","6-7 Ormonde Rd, Kilkenny, Co. Kilkenny, Ireland",52.6487452,-7.2530582
"Notre Dame School, Dundrum, Dublin 14","00 Upper Churchtown Road, Churchtown, Churchtown Lower, Dublin 14, Ireland",53.293852,-6.250994
"Catholic University School, Lower Leeson Street, Dublin 2","89 Leeson Street Lower, Dublin 2, D02 KC81, Ireland",53.3352708,-6.2558832
"Newbridge College, Newbridge, Co Kildare","Common, Newbridge, Co. Kildare, Ireland",53.188628,-6.7934194
"Coláiste Naomh Mhuire, Naas, Co Kildare","Sallins Rd, Naas West, Naas, Co. Kildare, Ireland",53.2202205,-6.6637766
"Scoil Mhuire, Trim, Co Meath","Patrick St, Trim, Co. Meath, Ireland",53.5524517,-6.790107
"Ardscoil Ris, Griffith Avenue, Dublin 9","Griffith Ave, Grace Park, Dublin 09, Ireland",53.3692639,-6.228192
"St Joseph''s College, Nun''s Island, Galway","Nun's Island, Galway, Ireland",53.2725622,-9.0579615
"Maynooth Community College, Maynooth, Co Kildare","Maynooth Education Campus, Moyglare Road, Maynooth, Co. Kildare, Ireland",53.3843289,-6.5954684
"Loreto Secondary School, St Michael''s, Navan","Saint Michael's, Athlumney, Navan, Co. Meath, C15 YF83, Ireland",53.6520087,-6.6762401
"Castleknock Community College, Castleknock, Dublin 15","Carpenterstown Road, Diswellstown, Dublin, Ireland",53.371686,-6.390483
"Wesley College, Ballinteer, Dublin 16 (B)","36 R826, Sandyford, Dublin, Ireland",53.2785599,-6.2420009
"St Angela''s College, St Patrick''s Hill, Cork","St Patrick's Hill, Cork, T23 FXY8, Ireland",51.9028905,-8.4701155
"Santa Sabina Dominican College, Sutton, Dublin 13","Santa Sabina, Greenfield Rd, Howth Demesne, Dublin, Ireland",53.3874264,-6.1004037
"Cistercian College, Roscrea, Co Tipperary (B)","Mount St Joseph Abbey, Mountheaton, Roscrea, Co. Tipperary, Ireland",52.9626356,-7.8548206
"Rockwell College, Cashel, Co Tipperary (B)","Carrigeen, Rockwell College, Co. Tipperary, Ireland",52.4578294,-7.8927428
"Kilkenny College, Castlecomer Road, Kilkenny (B)","Castlecomer Rd, Seixeslough, Kilkenny, Ireland",52.6677089,-7.2475081
"Sutton Park School, Sutton, Dublin 13","St Fintan's Road, Sutton, Dublin 13, D13 PY92, Ireland",53.3766884,-6.0931013
"The King''s Hospital, Palmerstown, Dublin 20 (B)","Old Lucan Road, Brooklawn, Palmerstown, Co. Dublin, D20 V256, Ireland",53.3588868,-6.387131
"Gaelcholaiste Chiarrai, Tralee, Co Kerry","Cloon Beg, Tralee, Co. Kerry, Ireland",52.2667396,-9.6989362
"St Mary''s Secondary School, Macroom, Co Cork","New Road, Macroom, Co. Cork, Ireland",51.9036256,-8.9579788
"St Francis Capuchin College, Rochestown, Co Cork",.,.,.
"St Joseph''s Secondary School, Castlebar, Co Mayo","Gorteendrunagh, Castlebar, Co. Mayo, Ireland",53.8558383,-9.2908054
"St Mary''s Secondary School, Nenagh, Co Tipperary","Nenagh, Nenagh North, Nenagh, Co. Tipperary, Ireland",52.8650613,-8.2017081
"CBC, Monkstown, Co Dublin","Mounttown Road Upper, Dún Laoghaire, Dublin, Ireland",53.2899387,-6.1482453
"Our Lady''s School, Terenure, Dublin 6W","Templeogue Rd, Templeogue Village, Ballyboden, Co. Dublin, D6W, Ireland",53.3004921,-6.2961531
"Presentation Secondary School, Mitchelstown, Co Cork","Presentation Secondary School, Church Rd, Brigown, Mitchelstown, Co. Cork, Ireland",52.2654128,-8.2653065
"Scoil Mhuire gan Smal, Roscommon, 9Scoil Mhuire gan Smal","Convent of Mercy, Convent Rd, Ardnanagh, Roscommon, Ireland",53.6280154,-8.1966823
"Gaelcholaiste Cheatharlach, Askea, Co Carlow","Gaelcholáiste Ceatharlach, Askea, Carlow, Ireland",52.8368409,-6.9108865
"Coláiste Ghobnait, Inis O\xc3\xadrr, Aran Islands","Inisheer, Co. Galway, Ireland",53.063474,-9.5225605
"Presentation College, Athenry, Co Galway","L3103, Prospect, Athenry, Co. Galway, Ireland",53.2990914,-8.7619332
"Loreto Secondary School, Spawell Road, Co Wexford","Pembroke Hill, Ballynagee, Wexford, Co. Wexford, Ireland",52.3226218,-6.4854942
"Scoil Chaitriona, Glasnevin, Dublin 9","St Mobhi Rd, Glasnevin, Dublin 9, D09 TW99, Ireland",53.3745441,-6.2623067
"Laurel Hill Secondary School FCJ, South Circular Road, Limerick","S Circular Rd, Laurel Hill Ave, Limerick, Ireland",52.6549898,-8.6363918
"St Colmcille''s Community School, Knocklyon, Dublin 16","Scholarstown Rd, Knocklyon, Dublin, Co. Dublin, D16 H298, Ireland",53.2786269,-6.315072
"Colaiste Muire, Ennis, Co Clare","Coláiste Muire, Rae an Chairdis, Lifford, Inis, Co. Contae an Chláir, Ireland",52.8469905,-8.9854667
"Loreto Secondary School, Granges Road, Kilkenny","Granges Rd, Bishopsmeadows, Kilkenny, Co. Kilkenny, R95 W2NV, Ireland",52.6589505,-7.2606511
"Terenure College, Terenure, Dublin 6W","Templeogue Rd, Terenure, Dublin, D6W DK72, Ireland",53.3038,-6.2942162
"East Glendalough School, Station Road, Wicklow","Station Rd, Glebe, Wicklow, A67 PC52, Ireland",52.9875182,-6.0540988
"St Peter''s College, Dunboyne, Co Meath","Station Rd, Bracetown, Dunboyne, Co. Meath, Ireland",53.4185002,-6.468379
"Loreto College, Cavan, ","Loreto College, Drumlark, Cavan, H12 WV60, Ireland",54.0127666,-7.3737017
"Eureka Secondary School, Kells, Co Meath","Cavan Rd, Townparks, Kells, Co. Meath, A82 R6C4, Ireland",53.7304775,-6.8860615
"Our Lady''s Bower, Athlone, Co Westmeath","Retreat Rd, Aghacocara, Athlone, Co. Westmeath, Ireland",53.4225836,-7.9220011
"Colaiste Oiriall, Monaghan                           , ","Knockaconny, Monaghan, Ireland",54.2625795,-6.9504065
"Colaiste Na Toirbhirte, Bandon, Co Cork","Ard Aoibhinn, Bandon, Co. Cork, P72 FW28, Ireland",51.740204,-8.731043
"St Joseph''s College, Thurles, Co Tipperary","1 Pallas St, Borrisland South, Borrisoleigh, Co. Tipperary, E41 X228, Ireland",52.748946,-7.9599165
"Castletroy College, Newtown, Co Limerick","Newtown, Castletroy, Co. Limerick, V94 6D85, Ireland",52.6631336,-8.5408984
"Calasanctius College, Oranmore, Co Galway","Oranmore, Innplot, Oranmore, Co. Galway, Ireland",53.267645,-8.9332681
"St Joseph''s College, Lucan, Co Dublin","Lucan Rd, Esker North, Lucan, Co. Dublin, Ireland",53.3579268,-6.4409843
"Dominican College, Taylor''s Hill, Galway","Taylor's Hill Rd, Rosary Ln, Galway, Ireland",53.2681461,-9.0760287
"Loreto Secondary School, Fermoy, Co Cork","College Rd, Fermoy, Co. Cork, Ireland",52.135928,-8.2773
"Gaelcholaiste Reachrann, Donaghmede, Dublin 13","Grange Abbey Rd, Grange Abbey, Dublin 13, D13 RW28, Ireland",53.3993137,-6.1561837
"St Kieran''s College Secondary School, College Road, Kilkenny","College Rd, Kilkenny, Ireland",52.6475799,-7.2549442
"Presentation Secondary School, Listowel, Co Kerry","106 Feale Dr, Listowel, Co. Kerry, V31 AH76, Ireland",52.448081,-9.4937056
"Malahide Community School, Malahide, Co Dublin","Broomfield, Malahide, Co. Dublin, Ireland",53.438265,-6.1526534
"Ashton School, Blackrock Road, Cork","27 Boreenmanna Rd, Belfield Abbey, Ballintemple, Cork, Ireland",51.8925892,-8.4518135
"Mount St Michael, Claremorris, Co Mayo","Convent of Mercy, Claremount, Claremorris, Co. Mayo, Ireland",53.732416,-9.0014401
"Scoil Mhuire, Ballingeary, Co Cork (G)","Illauninagh West, Ballingeary, Co. Cork, P12 YP62, Ireland",51.8479875,-9.235342
"Sacred Heart Secondary School, Clonakilty, Co Cork","10 Convent Ct, Scartagh, Clonakilty, Co. Cork, P85 KW28 Convent Ct, Scartagh, Clonakilty, Co. Cork, P85 KW28, Ireland",51.6269542,-8.8799914
"St Gerald''s College, Castlebar, Co Mayo","Newport Rd, Garryduff, Castlebar, Co. Mayo, Ireland",53.8574365,-9.3080468
"Salesian College, Celbridge, Co Kildare","Maynooth Rd, Crodaun, Celbridge, Co. Kildare, Ireland",53.3583155,-6.5523368
"Seamount College, Kinvara, Co Galway","Kinvarra, Dungory West, Kinvara, Co. Galway, Ireland",53.1387045,-8.9352155
"Meanscoil Iognaid Ris, Naas, Co Kildare","Corban's Ln, Naas East, Naas, Co. Kildare, Ireland",53.2157141,-6.6614147
"St Brigid''s Secondary School, Killarney, Co Kerry","New St, Monearmore, Killarney, Co. Kerry, Ireland",52.0585011,-9.515911
"Colaiste Choilm, Ballincollig, Co Cork","Ballincollig, Carrigrohane, Ballincollig, Co. Cork, Ireland",51.8897506,-8.580173
"Colaiste An Phiarsaigh, Glanmire, Co Cork (B)","Poulacurry South, Glanmire, Co. Cork, Ireland",51.9180756,-8.398856
"Pobalscoil Chorca Dhuibhne, Bothar an Spa, Dingle","Pobalscoil Chorca Dhuibhne, Spa Rd, Grove, Dingle, Co. Kerry, Ireland",52.143275,-10.2672394
"Villiers Secondary School, North Circular Road, Limerick (B)","N Circular Rd, Limerick, Ireland",52.6615983,-8.6584185
"St Aloysius'' College, Carrigtwohill, Co Cork","Carrig Downs, Carrigtohill, Co. Cork, Ireland",51.9098686,-8.2593207
"Colaiste Chilliain, Clondalkin, Dublin 22","96-116 Old Nangor Rd, Clondalkin, Dublin 22, Ireland",53.3231339,-6.4023791
"De La Salle College, Macroom, Co Cork","Barrack Ln, Maghereen, Co. Cork, Ireland",51.9064068,-8.9643844
"Mount Temple Comprehensive School, Clontarf, Dublin 3","128 Malahide Road, Malahide Road, Clontarf, Dublin 3, D03 DX79, Ireland",53.3691594,-6.2224862
"Colaiste Eanna CBS, Ballyroan, Dublin 16","Hillside Park, Ballyroan Road, Ballyroan, Rathfarnham, Dublin 16, D16 E248, Ireland",53.2859957,-6.2962697
"Gaelcholaiste Chill Dara, Loiste, Herbert","R445, Naas West, Naas, Co. Kildare, Ireland",53.2158046,-6.6691701
"Scoil Phobail Mhic Dara, Carna, Co Galway (G)","Carna, Co. Galway, Ireland",53.323963,-9.818426
"Scoil Mhuire agus Ide, Newcastle West, Co Limerick","Bóthar Buí, Rathnaneane, Newcastle West, Co. Limerick, Ireland",52.4464932,-9.0594866
"Our Lady''s Grove, Goatstown Road, Dublin 14","D14 Y993, Our Lady's Grove, Goatstown Rd, Friarland, Dublin 14, Ireland",53.3006942,-6.2338977
"St Fintan''s High School, Sutton, Dublin 13","13 Dublin Rd, Burrow, Sutton, Co. Dublin, D13 HN59, Ireland",53.3892178,-6.1179363
"Colaiste an Spioraid Naoimh, Bishopstown, Cork","Bishopstown, Cork, Co. Cork, Ireland",51.8829286,-8.517108
"Mount St Michael, Rosscarbery, Co Cork","Mount Saint Michael's Secondary School, Ardagh East, Rosscarbery, Co. Cork, Ireland",51.583032,-9.0257308
"Lucan Community College, Esker, Lucan","Lucan Community College, Esker Dr, Lucan, Co. Dublin, Ireland",53.3476706,-6.4497507
"Tarbert Comprehensive School, Listowel, Co Kerry","Tarbert, Kilpadogue, Tarbert, Co. Kerry, V31 WD66, Ireland",52.5739636,-9.3837619
"Sacred Heart Secondary School, Drogheda, Co Louth","Sunnyside, Drogheda, Co. Louth, Ireland",53.7112734,-6.343114
"Templeogue College, Templeville Road, Dublin 6W","Templeville Rd, Dublin, Ireland",53.3041375,-6.3119162
"Christ King Girls'' Secondary School, South Douglas Road, Cork","Half Moon Ln, South Douglas Road, Cork, Co. Cork, T12 R22C, Ireland",51.8845041,-8.4624111
"Rice College, Ennis, Co Clare","New Rd, Lifford, Ennis, Co. Clare, Ireland",52.848132,-8.9790457
"Holy Rosary College, Mountbellew, Co Galway","Holy Rosary College, College Rd, Treanrevagh, Mountbellew, Co. Galway, Ireland",53.4697525,-8.4974901
"Colaiste Chroi Mhuire, Spiddal, Co Galway (G)","Bohoona East, Spiddal, Co. Galway, Ireland",53.2437593,-9.3074602
"Scoil Mhuire, Ennistymon, Co Clare","Scoil Mhuire, Lahinch Rd, Ennistimon, Co. Clare, Ireland",52.9388548,-9.2986566
"St Vincent''s Secondary School, Dundalk, Co Louth","Seatown Pl, Marshes Lower, Dundalk, Co. Louth, Ireland",54.005274,-6.391834
"St Mary''s High School, Midleton, Co Cork","Castleredmond, Midleton, Co. Cork, Ireland",51.9082072,-8.1696676
"Dundalk Grammar School, Dundalk, Co Louth (B)","The Crescent, Cambrickville, Dundalk, Co. Louth, Ireland",53.9976335,-6.4103045
"Colaiste Raithin, Bray, Co Wicklow","Bóthar Bhaile Átha Cliath, Ravenswell, Bré, Co. Chill Mhantáin, A98 X3A3, Ireland",53.2096484,-6.109433
"Colaiste an Eachréidh, Athenry, Co Galway","Tuam Rd, Gorteenacra, Athenry, Co. Galway, Ireland",53.3011203,-8.7467822
"Scoil Chuimsitheach Chiarain, Carraroe, Co Galway (G)","Barraderry, Carraroe, Co. Galway, Ireland",53.2622391,-9.5978179
"Maryfield College, Drumcondra, Dublin 9","Sion Hill Rd, Grace Park, Dublin, Ireland",53.3760038,-6.235165
"Mean Scoil Naomh Ioseph, Castleisland, Co Kerry","Clochar Na Toirbhirte, Cahereen East, Castleisland, Co. Kerry, Ireland",52.2300415,-9.4659594
"St Anne''s Community College, Killaloe, Co Clare","Clarisford, Shantraud, Killaloe, Co. Clare, Ireland",52.8030727,-8.4402273
"Balla Secondary School, Balla, Co Mayo","Balla, Moat, Castlebar, Co. Mayo, Ireland",53.8071689,-9.1375791
"St Peter''s College, Summerhill, Wexford","Summerhill Heights, Townparks, Wexford, Y35 P8WT, Ireland",52.3350512,-6.4723007
"St Benildus College, Kilmacud, Dublin 14","Kilmacud Rd Upper, Stillorgan, Dublin, Ireland",53.2846602,-6.2213697
"Presentation Secondary School, Thurles, Co Tipperary (B)","Mitchel St, Monacocka, Thurles, Co. Tipperary, Ireland",52.6814189,-7.8070551
"FCJ Secondary School, Bunclody, Co Wexford","Bunclody, Ballinapark, Enniscorthy, Co. Wexford, Ireland",52.6563139,-6.6463816
"Ratoath College, Jamestown, Co Meath","Jamestown, Ratoath, Co. Meath, Ireland",53.499422,-6.4575933
"Meanscoil San Nioclas, Rinn O gCuanach, Co Waterford (G)","Headquarters D Company, Youghal Rd, Ringaphuca, Dungarvan, Co. Waterford, X35 RF24, Ireland",52.0477152,-7.5755797
"Colaiste Ghobnatan, Ballymakeera, Co Cork (G)","Flats, Ballymakeery, Co. Cork, P12 X239, Ireland",51.9392118,-9.1558049
"St Patrick''s Classical School, Navan, Co Meath","1 Spireview Lawns, Johnstown, Navan, Co. Meath, C15 H56K, Ireland",53.6530425,-6.6983244
"Our Lady''s Secondary School, Belmullet, Co Mayo","Belmullet, Co. Mayo, Ireland",54.2135644,-9.9824053
"St Mary''s Secondary School, New Ross, Co Wexford","Irishtown, Morrissysland, New Ross, Co. Wexford, Ireland",52.3995627,-6.9307021
"St Louis High School, Rathmines, Dublin 6","6 Charleville Rd, Rathmines, Dublin, Ireland",53.3215157,-6.2705757
"Loreto Secondary School, Balbriggan, Co Dublin","Brick Lane, Tankardstown, Balbriggan, Co. Dublin, Ireland",53.6125785,-6.1858034
"St Flannan''s College, Ennis, Co Clare","Clonroad More, Ennis, Co. Clare, Ireland",52.8336549,-8.9835507
"Sacred Heart Secondary School, Tullamore, Co Offaly","Daingean Rd, Tullamore, Co. Offaly, Ireland",53.2766602,-7.4851351
"Mercy College, Woodford, Co Galway","Woodford, Bolag, Woodford, Co. Galway, Ireland",53.0488882,-8.3971015
"Scoil Dara, Kilcock, Co Kildare","Church St, Kilcock, Co. Kildare, Ireland",53.4029847,-6.6704329
"Colaiste Daibheid, An t-Ardan Theas, Cork","Coláiste Daibhéid, South Terrace, Ballintemple, Cork, Ireland",51.8943,-8.4678638
"Loreto Secondary School, Clonmel, Co Tipperary","Loreto Secondary School, Coleville Rd, Raheen, Clonmel, Co. Tipperary, Ireland",52.3503221,-7.6941296
"St Patrick''s College, Cavan, ","Cullies, Co. Cavan, Ireland",54.0087921,-7.3532294
"Colaiste Einde, Threadneedle Road, Galway","Threadneedle Rd, Salthill, Co. Galway, Ireland",53.2655875,-9.0896355
"Leixlip Community School, Leixlip, Co Kildare","River Forest, Newtown, Leixlip, Co. Kildare, Ireland",53.3728402,-6.4983019
"Confey Community College, Leixlip, Co Kildare","River Forest, Newtown, Leixlip, Co. Kildare, Ireland",53.3728402,-6.4983019
"Ardscoil Ui Urmoltaigh, Bandon, Co Cork","Allen Square, Coolfadda, Bandon, Co. Cork, Ireland",51.746973,-8.7442525
"Oatlands College, Stillorgan, Co Dublin","Mount Merrion, Dublin, Ireland",53.2926895,-6.2026421
"Presentation Secondary School, Loughboy, Kilkenny","Loughboy, Kilkenny, R95 RR90, Ireland",52.638977,-7.2472105
"Community College, Dunshaughlin, Co Meath","Drumree Rd, Knocks, Dunshaughlin, Co. Meath, A85 TY22, Ireland",53.5138304,-6.5497252
"St Louis Secondary School, Carrickmacross, Co Monaghan","1 R179, Drummond Etra, Co. Monaghan, Ireland",53.9733154,-6.7184699
"St Mary''s Knockbeg College, Knockbeg, Co Carlow","Knockbeg, Carlow, Ireland",52.867315,-6.9377338
"Stratford College, Rathgar, Dublin 6","1 Zion Rd, Rathfarnham, Dublin 6, D06 T9V3, Ireland",53.3097011,-6.2743134
"Colaiste Bride, Enniscorthy, Co Wexford","The Shannon, Templeshannon, Enniscorthy, Co. Wexford, Ireland",52.5027873,-6.5589273
"Loreto Secondary School, Bray, Co Wicklow","Loreto Secondary School, Vevay Rd, Bray, Co. Wicklow, Ireland",53.1968412,-6.1065022
"Sligo Grammar School, The Mall, Sligo (B)","The Mall, Rathquarter, Sligo, Ireland",54.2729652,-8.463732
"Presentation College, Tuam, Co Galway","Currylea, Tuam, Co. Galway, H54 V260, Ireland",53.5179802,-8.8490486
"Boherbue Comprehensive School, Mallow, Co Cork","Boherbue, Derrynatubbrid, Mallow, Co. Cork, Ireland",52.1594364,-9.0618548
"St Mary''s Secondary School, Newport, Co Tipperary","Church Rd, Newport, Tipperary, Ireland",52.7108055,-8.4117531
"Sacred Heart School, Westport, Co Mayo","Castlebar Rd, Carrowbeg, Westport, Co. Mayo, Ireland",53.801327,-9.5168068
"Presentation Secondary School, Tralee, Co Kerry","Cloonbeg, Cloon Beg, Tralee, Co. Kerry, Ireland",52.2660639,-9.7000182
"CBS, Mitchelstown, Co Cork","Brigown, Mitchelstown, Co. Cork, Ireland",52.2637727,-8.2666108
"Our Lady''s Secondary School, Castleblayney, Co Monaghan","Castleblayney, Moraghy, Castleblayney, Co. Monaghan, Ireland",54.1192092,-6.7432266
"St Mary''s Secondary School, Ballina, Co Mayo","Convent Hill, Ballina, Co. Mayo, Ireland",54.1158044,-9.1628981
"Pobalscoil Ghaoth Dobhair, Letterkenny, Co Donegal (G)","Knocknamona, Letterkenny, Co. Donegal, Ireland",54.9627237,-7.7241272
"St Raphaela''s Secondary School, Stillorgan, Co Dublin","St Raphaela's Rd, Kilmacud, Dublin, Ireland",53.2830554,-6.2056634
"St Paul''s Secondary School, Oughterard, Co Galway","Carrowmanagh, Co. Galway, Ireland",53.4302059,-9.3291638
"Midleton College, Midleton, Co Cork (B)","Connolly St, Midleton, Co. Cork, Ireland",51.9148487,-8.1711509
"Bandon Grammar School, Bandon, Co Cork (B)","Clancool More, Bandon, Co. Cork, Ireland",51.7336025,-8.7493985
"St David''s Secondary School, Greystones, Co Wicklow","Kimberley Rd, Rathdown Lower, Greystones, Co. Wicklow, Ireland",53.1467248,-6.0609531
"Mohill Community College, Co Leitrim, 2Mohill Community College","Mohill, Shannagh, Mohill, Co. Leitrim, Ireland",53.9228706,-7.8715063
"St Louis Secondary School, Monaghan, ","Mullaghmonaghan, Monaghan, Ireland",54.2449085,-6.9727512
"Colaiste Cholmain, Claremorris, Co Mayo","Knock Rd, Castlegar, Claremorris, Co. Mayo, Ireland",53.7351315,-8.9808415
"Meanscoil na mBraithre Criostai, James Street, Kilkenny","James's St, Gardens, Kilkenny, Ireland",52.6530261,-7.2561542
"Rathmines College, Rathmines, Dublin 6","Townhall, Rathmines, Dublin 6, Ireland",53.3240796,-6.2652375
"John Scottus Secondary School, Donnybrook, Dublin 4","47-49 Northumberland Rd, Ballsbridge, Dublin 4, D04 R128, Ireland",53.3344637,-6.2373238
"St Dominic''s College, Cabra, Dublin 7","Ratoath Rd, Ashtown, Dublin 7, D07 NX47, Ireland",53.3714993,-6.3075605
"St Macartan''s College, Monaghan, ","Mullamurphy, Co. Monaghan, Ireland",54.2639066,-6.9562484
"Portmarnock Community School, Portmarnock, Co Dublin","Carrickhill Rd Upper, Carrickhill, Portmarnock, Co. Dublin, Ireland",53.431772,-6.13749
"The Intermediate School, Killorglin, Co Kerry","Killorglin Intermediate School, Iveragh Rd, Castleconway, Killorglin, Co. Kerry, Ireland",52.1070849,-9.795216
"Drogheda Grammar School, Drogheda, Co Louth","Mornington Rd, Stameen, Drogheda, Co. Meath, Ireland",53.7185462,-6.3035134
"Ballinamore Community School, Ballinamore, Co Leitrim","R202, Kildorragh, Co. Leitrim, Ireland",54.0582796,-7.7926755
"Pobalscoil Inbhear Sceine, Kenmare, Co Kerry","Railway Rd, Kenmare, Co. Kerry, V93 K580, Ireland",51.8821731,-9.5830017
"Franciscan College, Gormanston, Co Meath","Gormanston, Co. Meath, Ireland",53.6344819,-6.2358322
"St Joseph''s Secondary School, Miltown Malbay, Co Clare","Saint Joseph's National School, Mullagh Rd, Leagard North, Miltown Malbay, Co. Clare, Ireland",52.8531247,-9.4026556
"St Mary''s Secondary School, Charleville, Co Cork","St Mary's Secondary School, Rathgoggan Middle, Co. Cork, Ireland",52.3543921,-8.6866722
"St Mary''s Secondary School, Edenderry, Co Offaly ","Edenderry, Co. Offaly, Ireland",53.3398252,-7.0598529
"Scoil Pol, Kilfinane, Co Limerick","Kilfinnane, Kilfinane, Co. Limerick, Ireland",52.3616468,-8.4720349
"St Brigid''s School, Tuam, Co Galway","Dublin Rd, Townparks (3rd Division), Tuam, Co. Galway, H54 F202, Ireland",53.5128392,-8.8478484
"St Finian''s College, Mullingar, Co Westmeath","Longford Rd, Ballyglass, Mullingar, Co. Westmeath, Ireland",53.5397016,-7.3551727
"St Raphael''s College, Loughrea, Co Galway","Cross St, Farranalynch, Loughrea, Co. Galway, Ireland",53.1999042,-8.5609795
"Meanscoil Na mBraithre, Ennistymon, Co Clare","Saint Joseph's Christian Brother's School, Monastery Ln, Deerpark Middle, V95 W880, Co. Clare, Ireland",52.941792,-9.2895743
"Skerries Community College, Skerries, Co Dublin","Townparks, Skerries, Co. Dublin, Ireland",53.5792175,-6.1158609
"Colaiste Pobail Setanta, Dublin 15, ","Phibblestown Wood, Clonsilla, Dublin 15, Ireland",53.3977573,-6.4348173
"St Leo''s College, Dublin Road, Carlow","Old Dublin Rd, Graigue, Carlow, R93 R5X5, Ireland",52.839996,-6.9274908
"Colaiste Muire, Crosshaven, Co Cork","Coláiste Muire, Crosshaven, Co. Cork, Ireland",51.801271,-8.2981646
"Colaiste Ailigh, Letterkenny, Co Donegal","Knocknamona, Letterkenny, Co. Donegal, Ireland",54.9627237,-7.7241272
"Newpark Comprehensive School, Blackrock, Co Dublin","Newtownpark Ave, Newtown Castlebyrn, Blackrock, Co. Dublin, Ireland",53.2898876,-6.173119
"Newtown School, Waterford (B), ","Newtown Rd, Waterford, Ireland",52.251899,-7.1010438
"Ballincollig Community School, Ballincollig, Co Cork","Innishmore, Ballincollig, Co. Cork, Ireland, Ballincollig, Co. Cork, Ireland",51.890044,-8.6023365
"St Michael''s College, Listowel, Co Kerry","St. Michael's College, Listowel, Co. Kerry, N69, Ballygowloge, Co. Kerry, Ireland",52.4475421,-9.4760996
"Clonkeen College, Blackrock, Co Dublin","Clonkeen Rd, Deansgrange, Blackrock, Co. Dublin, Ireland",53.2698715,-6.1571744
"Patrician Academy, Mallow, Co Cork","The Bowling Green, White St, Mallow Road, Mallow, Co. Cork, Ireland",52.1392577,-8.6445507
"St Attracta''s Community School, Tubbercurry, Co Sligo","Ballyara, Tubbercurry, Co. Sligo, Ireland",54.0534113,-8.7604927
"Scoil Mhuire Community School, Clane, Co Kildare","Prosperous Rd, Crockaun Commons, Clane, Co. Kildare, W91 PD79, Ireland",53.2918225,-6.6980338
"Scoil Mhuire, Ballinasloe, Co Galway","Scoil Mhuire, Shannonbridge Rd, Kilgarve, Ballinasloe, Co. Galway, Ireland",53.3280519,-8.2011777
"Loreto College, Mullingar, Co Westmeath","Harbour Rd, Commons, Mullingar, Co. Westmeath, N91 PX98, Ireland",53.5297874,-7.346506
"Our Lady''s College, Drogheda, Co Louth","Greenhills, Drogheda, Co. Louth, Ireland",53.7202731,-6.3269481
"Ursuline College, Sligo, 5Ursuline College","F91 FW54 Ursuline Convent, Finisklin Rd, Cartron, Sligo, Ireland",54.276431,-8.4877887
"Assumption Secondary School, Walkinstown, Dublin 12","62 Walkinstown Rd, Walkinstown, Dublin 12, D12 P3F6, Ireland",53.3225312,-6.3319853
"Ashbourne Community School, Deerpark, Co Meath ","Dublin Road, 1 Deerpark, Archerstown, Ashbourne, Co. Meath, Ireland",53.5041275,-6.3881152
"Loreto College, Swords, Co Dublin","River Valley, Swords, Co. Dublin, Ireland",53.454323,-6.2456039
"St Joseph''s Secondary School, Navan, Co Meath","Convent of Mercy, Brews Hill, Dillonsland, Navan, Co. Meath, C15 HW32, Ireland",53.6502756,-6.6881753
"St Augustine''s College, Dungarvan, Co Waterford","Abbeyside, Dungarvan, Co. Waterford, Ireland",52.100178,-7.591896
"Mean Scoil Mhuire, Longford , ","5 St Joseph's Rd, Deanscurragh, Longford, Ireland",53.7254726,-7.7956046
"Meanscoil Gharman, Enniscorthy, Co Wexford","Brownswood House, Brownswood, Enniscorthy, Co. Wexford, Ireland",52.4733379,-6.5580411
"St Kevin''s Community College, Dunlavin, Co Wicklow","Saint Kevin's Community College, Pound Rd, Dunlavin Upper, Dunlavin, Co. Wicklow, Ireland",53.0543708,-6.6967596
"St Joseph''s CBS, Nenagh, Co Tipperary","Summerhill, Nenagh North, Nenagh, Co. Tipperary, Ireland",52.8665478,-8.1930194
"Manor House, Raheny, Dublin 5","Watermill Rd, Raheny - St. Assam, Dublin, Ireland",53.3785542,-6.1729941
"Clonakilty Community College, Clonakilty, Co CorkCorkM46.785.65453211.5023-88338","Scartagh, Clonakilty, Co. Cork, P85 E099, Ireland",51.6248108,-8.8870622
"St Angela''s Ursuline Convent, Waterford, ","Ballytruckle Rd, Waterford, Ireland",52.2459495,-7.1137591
"St Patrick''s Cathedral GS, St Patrick''s Close, Dublin 8","St Patrick's Close, Dublin 8, A96 P599, Ireland",53.3395154,-6.2714767
"Colaiste na Sceilge, Caherciveen, Co Kerry","Cahersiveen, Garranebane, Cahirciveen, Co. Kerry, Ireland",51.9401427,-10.2408435
"Royal School Cavan, Cavan (B), ","College St, Tullymongan Upper, Cavan, Ireland",53.9844935,-7.3617566
"Scoil Chriost Ri, Portlaoise, Co Laois","Borris Rd, Ratheven, Portlaoise, Co. Laois, Ireland",53.0487946,-7.2801655
"Ursuline Secondary School, Blackrock, Cork","Blackrock, Cork, Ireland",51.8955772,-8.4157559
"Carrick Vocational School, Carrick, Co Donegal","Carrick Vocational School, Carrick Lower, Co. Donegal, Ireland",54.6553208,-8.6331113
"The Abbey School, Station Road, Tipperary","Station Rd, Town Lot, Tipperary, Ireland",52.4716694,-8.1605921
"Jesus & Mary Secondary School, Crossmolina, Co Mayo","507 Mulberry St, Independence, KS 67301, USA",37.2467307,-95.7122751
"Colaiste Cholmain, Fermoy, Co Cork","Fermoy, Co. Cork, Ireland",52.1362206,-8.2783971
"Mercy Secondary School, Inchicore, Dublin 8","Thomas Davis St W, Inchicore, Dublin, Ireland",53.3373353,-6.3218796
"Luttrelstown Community College, Co Dublin, ","Porterstown Road, Clonsilla, Annfield, Dublin 15, Co. Dublin, Ireland",53.3753316,-6.4088352
"Scoil Mhuire, Strokestown, Co Roscommon","Strokestown, Lisroyne, Strokestown, Co. Roscommon, Ireland",53.7774271,-8.1123617
"John The Baptist Community School, Hospital, Co Limerick ","Hospital, Barrysfarm, Hospital, Co. Limerick, Ireland",52.4735323,-8.434838
"Davitt College, Castlebar, Co Mayo","Springfield, Castlebar, Co. Mayo, F23 VY15, Ireland",53.8571589,-9.2903781
"St Aloysius'' School, St Maries of the Isle, Cork","9 Sharman Crawford St, The Lough, Cork, Co. Cork, T12 RK03, Ireland",51.8957282,-8.4818746
"Gaelcholaiste Mhuire, North Monastery Road, Cork","Gaelcholáiste Mhuire, N Monastery Rd, Cork, Ireland",51.9092245,-8.4806722
"Colaiste Muire, Ballymote, Co Sligo","Convent of Mercy, Carrowcauly, Ballymote, Co. Sligo, Ireland",54.0939456,-8.5138488
"Community School, Carrick-on-Shannon, Co Leitrim","2-12 Glen Carrick, Summerhill, Carrick-On-Shannon, Co. Leitrim, N41 XE09, Ireland",53.949038,-8.085044
"Beara Community School, Beara, Co Cork","Beara Community School, Cametringane, Castletown-Bearhaven, Co. Cork, Ireland",51.6476511,-9.9135981
"Scoil Mhuire, Kanturk, Co Cork","Greenfield Rd, Kanturk, Co. Cork, Ireland",52.178266,-8.9116213
"Heywood Community School, Ballinakill, Co Laois","Haywood Demesne, Ballinakill, Co. Laois, Ireland",52.8854675,-7.2994619
"Holy Family Secondary School, Newbridge, Co Kildare","Naas Rd, Littleconnell, Newbridge, Co. Kildare, W12 YD71, Ireland",53.1832238,-6.7899728
"Gort Community School, Gort, Co Galway","Ennis Rd, Gortstuckanagh, Gort, Co. Galway, Ireland",53.0615103,-8.8112481
"St Aidan''s CBS, Whitehall, Dublin 9","Collins Ave, Whitehall, Dublin, Ireland",53.3846085,-6.2517664
"Colaiste Pobail Rath Cairn, Athboy, Co Meath (G)","Rathcarran, Clifton, Co. Meath, C15 FK26, Ireland",53.6200683,-6.860762
"Colaiste Chriost Ri, Capwell Road, Cork","Capwell Rd, Turners Cross, Cork, Ireland",51.8895847,-8.4646216
"Mercy Secondary School, Tralee, Co Kerry","R551, Mounthawk, Tralee, Co. Kerry, Ireland",52.2835862,-9.724129
"Mountrath Community School, Co Laois, ","Dysartbeigh, Dysartbeagh, Mountrath, Co. Laois, Ireland",52.995324,-7.4812815
"Boyne Community School, Trim, Co Meath ","Dublin Rd, Trim, Co. Meath, Ireland",53.550757,-6.784501
"Mary Immaculate Secondary School, Lisdoonvarna, Co Clare","Lisdoonvarna, Rathbaun, Lisdoonvarna, Co. Clare, Ireland",53.0305019,-9.2898619
"Clifden Community School, Clifden, Co Galway","Ardbear, Clifden, Co. Galway, Ireland",53.4784388,-10.0218035
"St Mary''s College, Arklow, Co Wicklow","St Mary's Rd, Abbeylands, Arklow, Co. Wicklow, Ireland",52.7952681,-6.1579569
"St Anne''s Secondary School, Rosanna Road, Tipperary","Rosanna Rd, Carrownreddy, Tipperary, Ireland",52.47842,-8.162647
"Moate Community School, Church Street, Co Westmeath","Church St, Aghanargit, Moate, Co. Westmeath, N37 DY70, Ireland",53.3967393,-7.7260493
"Our Lady of Lourdes Secondary School, New Ross, Co Wexford","Co. Wexford7, 7 Upper, Upper Rosbercon, Thomastown Rd, Rosbercon, New Ross, Co. Wexford, Y34 FT82, Ireland",52.3985154,-6.9530036
"Scoil Muire agus Padraig, Swinford, Co Mayo","1 Church View, Swineford, Swinford, Co. Mayo, F12 K729, Ireland",53.9419276,-8.9522376
"Colaiste Phadraig CBS, Lucan, Co Dublin","Roselawn, Ballydowd, Lucan, Co. Dublin, Ireland",53.3568794,-6.432607
"St Louis Secondary School, Dundalk, Co Louth","Castletown Rd, Castletown, Dundalk, Co. Louth, Ireland",54.0170012,-6.4262564
"Sancta Maria College, Ballyroan, Dublin 16","Ballyroan, Rathfarnham, Dublin 16, Ireland",53.2844396,-6.304447
"Donabate Community College, Donabate, Co Dublin","Ballisk Common, Donabate, Co. Dublin, Ireland",53.4899919,-6.1458709
"Scoil Mhuire, Carrick-on-Suir, Co Tipperary","Greenhill, Carrick-On-Suir, Co. Tipperary, E32 WN66, Ireland",52.3504642,-7.4014202
"St Declan''s College, Cabra, Dublin 7","Nephin Rd, Cabra West, Dublin 7, Ireland",53.3665733,-6.3031375
"Wilson''s Hospital School, Multyfarnham, Co Westmeath (B)","Heathland, Co. Westmeath, N91 AX97, Ireland",53.6126153,-7.4186884
"Mean Scoil an Chlochair, Kilbeggan, Co Westmeath","Kilbeggan, Co. Westmeath, Ireland",53.3675844,-7.4931893
"Presentation Secondary School, Ballingarry, Co Tipperary","Ballingarry, Ballingarry Lower, Ballingarry, Co. Tipperary, Ireland",52.5897416,-7.5655554
"Colaiste Bride, Clondalkin, Dublin 22","22 New Rd, Bushelloaf, Clondalkin, Co. Dublin, D22 C6Y2, Ireland",53.3206319,-6.392971
"Cross And Passion College, Kilcullen, Co Kildare","Kilcullen, Kilcullenbridge, Kilcullen, Co. Kildare, Ireland",53.1302052,-6.7467934
"St Michael''s Community College, Kilmihill, Co Clare","Saint Michael's Community College, Newtown, Kilmihil, Co. Clare, Ireland",52.7248033,-9.3211622
"Presentation Secondary School, Miltown, Killarney","New St, Monearmore, Killarney, Co. Kerry, Ireland",52.0585011,-9.515911
"Scariff Community College, Scariff, Co Clare","Drewsborough, Scarriff, Co. Clare, V94 Y9W2, Ireland",52.9027336,-8.5359141
"Loreto Convent Secondary School, Letterkenny, Co Donegal","Church Ln, Letterkenny, Co. Donegal, Ireland",54.9496892,-7.7411439
"Gorey Community School, Esmonde Street, Gorey","Esmonde St, Mill Lands, Gorey, Co. Wexford, Ireland",52.6731779,-6.2876501
"Colaiste Mhuire, Dublin 7\n, ","7 Ratoath Rd, Cabra West, Dublin, D07 CY97, Ireland",53.3621764,-6.2979091
"Kinsale Community School, Kinsale, Co Cork","kinsale community school, Ballynacubby, Kinsale, Co. Cork, Ireland",51.7044281,-8.5304429
"Colaiste Iosaef, Kilmallock, Co Limerick","Sheares St, Abbeyfarm, Kilmallock, Co. Limerick, Ireland",52.4043212,-8.5781852
"Ennis Community College, Ennis, Co Clare","Harmony Row, Lifford, Ennis, Co. Clare, Ireland",52.8469088,-8.9870622
"CBS Roscommon, Abbeytown, Roscommon","Abbeytown, Ballypheasan, Roscommon, Co. Roscommon, Ireland",53.626567,-8.19538
"Coláiste Íde agus Iosef, Abbeyfeale, Co Limerick","Convent St, Abbeyfeale West, Abbeyfeale, Co. Limerick, Ireland",52.3863935,-9.2961483
"St Caimin''s Community School, Tullyvarraga, Co Clare","Tullyvarraga, Shannon, Co. Clare, Ireland",52.7053651,-8.8627477
"Colaiste Mhuire, Askeaton, Co Limerick","Church St, Askeaton, Co. Limerick, Ireland",52.6001928,-8.969714
"Cashel Community School, Cashel, Co Tipperary","3a Bishop's Ave, St. Francisabbey, Co. Tipperary, Ireland",52.5190242,-7.8809957
"Carrigaline Community School, Carrigaline, Co Cork","Waterpark, Carrigaline Middle, Carrigaline, Co. Cork, P43 TX65, Ireland",51.8180177,-8.3865783
"Scoil Phobail Sliabh Luachra, Rathmore, Co Kerry","Rath More, Rathmore, Co. Kerry, Ireland",52.0797199,-9.2464518
"Gairmscoil Fheichin Naofa, Corr na Mona, Co Galway (G)","Cornamona, Co. Galway, Ireland",53.5133372,-9.451209
"St Cuan''s College, Castleblakeney, Ballinasloe","Castleblakeney National School, Ballinasloe, Castleblakeney, Co. Galway, Ireland",53.428941,-8.4729768
"Colaiste Mhuire, Buttevant, Co Cork","Station Rd, Creggane, Co. Cork, Ireland",52.2362182,-8.6772107
"St Mary''s CBS, Enniscorthy, Co Wexford","Mill Park Rd, Enniscorthy, Co. Wexford, Ireland",52.4973604,-6.5690937
"Colaiste Mhuire, Ballygar, Co Galway","Lower Main St, Tullyroe, Ballygar, Co. Galway, Ireland",53.5243338,-8.3215176
"Portumna Community School, Portumna, Co Galway","St Brigids Rd, Fairyhill, Portumna, Co. Galway, Ireland",53.0940952,-8.2200886
"St Mary''s Secondary School, Glasnevin, Dublin 11","Old Finglas Rd, Glasnevin, Dublin 11, Ireland",53.3761994,-6.2726919
"Glenamaddy Community School, Glenamaddy, Co Galway","Glenamaddy Community School, Church St, Glenamaddy, Co. Galway, Ireland",53.6074467,-8.5658524
"Rockbrook Park School, Rathfarnham, Dublin 16","16 Edmondstown Rd, Rathfarnham, Dublin 16, Ireland",53.262671,-6.300305
"Presentation College, Headford, Co Galway","Headford, Co. Galway, Ireland",53.4683378,-9.1110104
"St Paul''s Secondary School, Greenhills, Dublin 12","Limekiln Ln, Greenhills, Dublin, D12 E544, Ireland",53.3089898,-6.3304914
"Marist College, Athlone, Co Westmeath","Retreat Rd, Cannonsfield, Athlone, Co. Westmeath, Ireland",53.4251522,-7.9258916
"Salesian Secondary College, Pallaskenry, Co Limerick","Don Bosco Road, Ballydoole, Pallaskenry, Co. Limerick, V94 WP86, Ireland",52.6475376,-8.8577807
"Presentation Secondary School, Grogan''s Road, Co Wexford","Grogan's Rd, Slippery Green, Wexford, Co. Wexford, Y35 XV70, Ireland",52.3358143,-6.4644837
"Colaiste Chiarain, Croom, Co Limerick","High St, Tooreen, Croom, Co. Limerick, Ireland",52.5208434,-8.7138012
"CBS Secondary School, Tralee, Co Kerry","Cloonalour, Tralee, Co. Kerry, Ireland",52.2729968,-9.6994739
"Patrician High School, Carrickmacross, Co Monaghan","Rockdaniel Rd, Cloghvally Upper, Carrickmacross, Co. Monaghan, Ireland",53.9826021,-6.7156605
"St Joseph''s Secondary School, Tulla, Co Clare","Tulla, Co. Clare, Ireland",52.863721,-8.761016
"Ardscoil na Trionoide, Athy, Co Kildare  ","1 Lower St Joseph's Terrace, Athy, Co. Kildare, Ireland",52.9946645,-6.9841255
"Hazelwood College, Dromcollogher, Co Limerick","Hazelwood College, Kells, Dromcolliher, Co. Limerick, Ireland",52.3433302,-8.9033912
"Summerhill College, Sligo, 6Summerhill College","Summerhill, Crannagh, Athlone, Co. Roscommon, Ireland",53.409303,-7.9873868
"Coolmine Community School, Clonsilla, Dublin 15","Coolmine Cl, Clonsilla, Blanchardstown, Dublin 15, D15 PRX8, Ireland",53.3886899,-6.39567
"Colaiste Choilm, Tullamore, Co Offaly","Tullamore, Co. Offaly, Ireland",53.2704352,-7.4904158
"Ardscoil Mhuire, Corbally, Limerick","Corbally, Limerick, Co. Limerick, V94 X2TW, Ireland",52.6702789,-8.6145849
"Coachford College, Coachford, Co Cork","Glebe, Coachford, Co. Cork, Ireland",51.9121113,-8.7933017
"St Mary''s CBS, Portlaoise, Co Laois","Borris Rd, Ratheven, Portlaoise, Co. Laois, Ireland",53.0499161,-7.279241
"Patrician Secondary School, Newbridge, Co Kildare","Naas Rd, Piercetown, Newbridge, Co. Kildare, Ireland",53.1845071,-6.7925469
"St Muredach''s College, Ballina, Co Mayo","Sligo Rd, Abbeyhalfquarter, Ballina, Co. Mayo, Ireland",54.1151634,-9.1430837
"Castlecomer Community School, Castlecomer, Co Kilkenny","Castlecomer Community School, Donaguile, Castlecomer, Co. Kilkenny, Ireland",52.8036808,-7.2156799
"Dominican College Sion Hill, Blackrock, Co Dublin","Cross Ave, Blackrock, Dublin, A94 TP97, Ireland",53.3016723,-6.189702
"Abbey Vocational School, Donegal, ","Glebe, Co. Donegal, Ireland",54.648659,-8.112553
"St Mary''s College, Ballysadare, Co Sligo","Ballysadare, Knockmuldoney, Ballisodare, Co. Sligo, Ireland",54.2100573,-8.5115243
"St Jarlath''s College, Tuam, Co Galway","Bishop St, Townparks (4th Division), Tuam, Co. Galway, Ireland",53.5153514,-8.8478015
"Ard Scoil na nDeise, Dungarvan, Co Waterford","Sli Na Mara, Convent Row, Dungarvan, Co. Waterford, Ireland",52.0873907,-7.6183778
"Scoil na mBraithre Chriostai, Charleville, Co Cork","Bakers Rd, Ballysallagh, Charleville, Co. Cork, Ireland",52.3537589,-8.6788997
"Colaiste Bhride, Carnew, Co Wicklow","Coláiste Bhríde, Carnew, Co. Wicklow, Ireland",52.709856,-6.5019658
"Clonaslee Vocational School, Clonaslee, Co Laois","Corbally, Co. Laois, Ireland",53.1455966,-7.5139869
"Virginia College, Virginia, Co Cavan","Virginia, Rahardrum, Virginia, Co. Cavan, Ireland",53.8317736,-7.0845831
"Colaiste Mhuire, Tourmakeady, Co Mayo (G)","Carheen, Tourmakeady, Co. Mayo, Ireland",53.6654081,-9.350634
"Millstreet Community School, Millstreet, Co Cork","Coomlogane, Millstreet, Co. Cork, Ireland",52.062277,-9.0690189
"Colaiste Mhuire, Mullingar, Co Westmeath","College St, Commons, Mullingar, Co. Westmeath, N91 AT04, Ireland",53.527257,-7.3468931
"Ballyhaunis Community School, Ballyhaunis, Co Mayo","Knock Rd, Tooraree, Ballyhaunis, Co. Mayo, Ireland",53.7652628,-8.780729
"Presentation Community College, Terenure, Dublin 6W","Terenure Park, Terenure, Dublin, D6W CP28, Ireland",53.3108882,-6.2863607
"St Joseph''s Secondary School, Ballybunion, Co Kerry","R551, Doon West, Co. Kerry, Ireland",52.5172998,-9.6738562
"St Mel''s College, Longford, ","St Mel's Rd, Deanscurragh, Longford, Ireland",53.7289198,-7.7937244
"Colaiste Sheosaimh, Ballinasloe, Co Galway","Garbally Park, Mackney, Brackernagh (Clancarty), Ballinasloe, Co. Galway, Ireland",53.3237275,-8.247847
"St Brigid''s College, Callan, Co Kilkenny","3 Flaggy Ln, Callan North, Callan, Co. Kilkenny, R95 E0H7, Ireland",52.5480079,-7.3889226
"St Brigid''s Vocational School, Loughrea, Co Galway","Mt Pleasant, Baunoge, Loughrea, Co. Galway, Ireland",53.1952867,-8.55951
"Colaiste Treasa, Kanturk, Co Cork","Greenane Street Upper, Bluepool, Co. Cork, Ireland",52.1779891,-8.9009388
"St Munchin''s College, Corbally, Limerick","Corbally Rd, Limerick, Ireland",52.6820057,-8.6140658
"St Joseph''s Secondary School, Rush, Co Dublin","Convent Ln, Rush, Co. Dublin, Ireland",53.5201959,-6.0910681
"Colaiste Bhreanainn, Killarney, Co Kerry","New Rd, Inch, Killarney, Co. Kerry, Ireland",52.0610117,-9.5169263
"Athlone Community College, Retreat Road, Co Westmeath","Retreat Rd, Retreat, Athlone, Co. Westmeath, N37 Y985, Ireland",53.4242631,-7.9206865
"Killina Presentation Secondary School, Tullamore, Co Offaly","Rahan Rd, Killina, Tullamore, Co. Offaly, Ireland",53.2708404,-7.5961768
"St Joseph''s Secondary School, Stanhope Street, Dublin 7","7 Stanhope St, Stoneybatter, Dublin 7, D07 W0Y0, Ireland",53.3526,-6.2819048
"Colaiste Cholmcille, Inverin, Co Galway (G)","Aille, Inverin, Co. Galway, Ireland",53.2446698,-9.3904651
"St Brendan''s College, Belmullet, Co Mayo","Saint Brendan's College, Belmullet, Co. Mayo, Ireland",54.2148735,-9.9789984
"Carrigallen Vocational School, Carrigallen, Co Leitrim","Carrigallen, Clooncorick, Carrigallen, Co. Leitrim, Ireland",53.9795381,-7.647758
"Blackwater Community School, Lismore, Co Waterford","Lismore, Ballyanchor Road, Co. Waterford, P51 N472, Ireland",52.1351178,-7.9402699
"Mercy College, Sligo, 5*Mercy College","Chapel Hill, Abbeyquarter South, Sligo, Ireland",54.267283,-8.4670677
"Colaiste na Trocaire, Rathkeale, Co Limerick","Ballywilliam, Abbeylands, Rathkeale, Co. Limerick, Ireland",52.520051,-8.934068
"Castleisland Community College, Castleisland, Co Kerry","Castleisland Community College, Tonbwee, Castleisland, Co. Kerry, Ireland",52.2272999,-9.4567093
"Coláiste Íosagáin, Portarlington, Co Laois","Kilmalogue, Portarlington, Co. Offaly, Ireland",53.1620053,-7.2038984
"Kilrush Community School, Kilrush, Co Clare","Kilrush, Co. Clare, Ireland",52.6423229,-9.4836843
"St Joseph''s Community School, Charlestown,  Co Mayo","Lowpark Ave, Lowpark, Charlestown, Co. Mayo, Ireland",53.960325,-8.801422
"Colaiste na hInse, Bettystown, Co Meath","Ninch, Bettystown, Co. Meath, Ireland",53.6927772,-6.2445807
"Schull Community College, Schull, Co Cork","Colla Road, Skull, Schull, Co. Cork, Ireland",51.5224824,-9.5467039
"De La Salle Secondary School, Dundalk, Co Louth","Castleblayney Rd, Castletown, Dundalk, Co. Louth, Ireland",54.0164969,-6.4277799
"Colaiste Ris, Dundalk, Co Louth","46 Clanbrassil St, Townparks, Dundalk, Co. Louth, A91 F882, Ireland",54.0074434,-6.4014756
"St Fergal''s College, Rathdowney, Co Laois","Saint Fergal's College, Church St, Rathdowney, Co. Laois, Ireland",52.854399,-7.5770925
"Blessington Community College, Naas Road, Co Wicklow","Naas Rd, Blessington, Co. Wicklow, Ireland",53.1695369,-6.5391134
"St Oliver Post Primary, Kells, Co Meath","4-2 Cavan St, Oldcastle, Co. Meath, Ireland",53.7719608,-7.1625026
"St Aidan''s Comprehensive School, Cootehill, Co Cavan","Station Rd, Lisnasaran, Cootehill, Co. Cavan, Ireland",54.066793,-7.062664
"Mercy Secondary School, Ballymahon, Co Longford","Ballymahon, Co. Longford, Ireland",53.565993,-7.7673962
"Presentation College, Bray, Co Wicklow","Headlands, Newcourt, Bray, Co. Wicklow, Ireland",53.1928723,-6.1013037
"St Joseph''s Secondary School, Rochfortbridge, Co Westmeath","Castlelost Road, Castlelost, Rochfortbridge, Co. Westmeath, Ireland",53.4140718,-7.3024653
"St Brendan''s Community School, Birr, Co Offaly ","Birr, Townparks, Birr, Co. Offaly, Ireland",53.1050072,-7.9163197
"St Joseph''s Secondary School, Co Mayo, 3St Joseph''s Secondary School","Providence Rd, Foxford, Co. Mayo, Ireland",53.9817013,-9.1113715
"St Mac Dara''s Community College, Templeogue, Dublin 6W","Wellington Ln, Templeogue, Dublin 6W, Co. Dublin, Ireland",53.2970834,-6.3268266
"Hartstown Community School, Clonsilla, Dublin 15","Hartstown Rd, Blakestown, Dublin 15, D15 X049, Ireland",53.3961378,-6.4160563
"Ardscoil na mBraithre, Clonmel, Co Tipperary","35 Kickham St, Burgagery-Lands East, Clonmel, Co. Tipperary, Ireland",52.3569233,-7.6985544
"Scoil na Trionoide Naofa, Doon, Co Limerick","Lisgaugh, Doon, Co. Limerick, Ireland",52.6008025,-8.2444812
"Our Lady''s Secondary School, Templemore, Co Tipperary","Sisters of Mercy Convent, Church Ave, Kiltillane, Templemore, Co. Tipperary, Ireland",52.7971606,-7.8294307
"Cnoc Mhuire, Granard, Co Longford","Rathcronan, Granard, Co. Longford, Ireland",53.780259,-7.488388
"Firhouse Community College, Firhouse, Dublin 24","Firhouse Rd, Tallaght, Dublin 24, Ireland",53.2762325,-6.3484937
"St Ciaran''s Community School, Kells, Co Meath","Gardenrath, Kells, Co. Meath, Ireland",53.724565,-6.871833
"Colaiste Chraobh Abhann, Creowen, Co Wicklow","Creowen, Kilcoole, Co. Wicklow, Ireland",53.1002438,-6.0653897
"Douglas Community School, Douglas, Cork","Clermont Ave, Douglas, Cork, T12 HF77, Ireland",51.8788253,-8.4430259
"CBS, Midleton, Co Cork","Castleredmond, Midleton, Co. Cork, P25 C951, Ireland",51.9072005,-8.1703219
"St Louis Community School, Kiltimagh, Co Mayo","Kiltimagh, Cordarragh, Kiltimagh, Co. Mayo, Ireland",53.8484098,-9.0020908
"CBS Thurles, O''Donovan Street, Co Tipperary","O'Donovan Rossa St, Thurles Townparks, Thurles, Co. Tipperary, Ireland",52.6811987,-7.8142163
"Scoil Mhuire Gan Smal, Blarney, Co Cork  ","Blarney, Shean Lower, Blarney, Co. Cork, Ireland",51.9325413,-8.5598213
"St Columbas College, Lifford, Co Donegal","Drumboe Ave, Stranorlar, Co. Donegal, Ireland",54.8040645,-7.7752411
"St Mary''s Diocesan School, Drogheda,  Co Louth","Beamore Rd, Lagavooren, Drogheda, Co. Louth, Ireland",53.7082726,-6.3473201
"St Eunan''s College, Letterkenny, Co Donegal","Letterkenny, Co. Donegal, Ireland",54.9517496,-7.7455758
"Mean Scoil Nua an Leith Triuigh, Castlegregory, Co Kerry","Mean Scoil Nua an Leith Triuigh, Castlegregory, Co. Kerry, Ireland",52.2550173,-10.0179768
"De La Salle College, Churchtown, Dublin 14","Churchtown Rd Upper, Churchtown Upper, Dublin, D14 A0T9, Ireland",53.2967167,-6.2642002
"Pobailscoil na Trionoide, Youghal, Co Cork","Parkmountain, Youghal, Co. Cork, P36 Y763, Ireland",51.95128,-7.8738631
"St Paul''s College, Raheny, Dublin 5","D05 E7N1, Sybil Hill Rd, Clontarf, Dublin, Ireland",53.372599,-6.1919029
"Rice College, Westport, Co Mayo","Castlebar Rd, Knockranny, Westport, Co. Mayo, Ireland",53.8011577,-9.5127496
"Moyle Park College, Clondalkin,  Dublin 22","Convent Rd, Clondalkin, Dublin 22, Ireland",53.3203273,-6.3971847
"Ballinrobe Community School, Ballinrobe, Co Mayo","Convent Rd, Friarsquarter West, Ballinrobe, Co. Mayo, Ireland",53.6231796,-9.2123198
"Maria Immaculata Community College, Dunmanway, Co Cork","Bantry Rd, Underhill, Dunmanway, Co. Cork, Ireland",51.7146934,-9.1158591
"Good Counsel College, New Ross, Co Wexford","Bosheen St, Reddysland, New Ross, Co. Wexford, Ireland",52.3960173,-6.9313993
"Abbey Community College, Ferrybank, Co Kilkenny","Abbey Rd, Ferrybank, Abbeylands, Co. Waterford, Ireland",52.264237,-7.101846
"St Clement''s College, South Circular Road, Limerick","Laurel Hill Avenue, South Circular Road, Limerick, Ireland",52.6557094,-8.6382446
"Colaiste an Chroi Naofa, Carrignavar, Co Cork","College Rd, Carrignavar, Co. Cork, Ireland",51.9847831,-8.4699168
"Colaiste Pobail Acla, Achill, Co Mayo","Polranny, Achill, Co. Mayo, Ireland",53.932702,-9.9136906
"Colaiste Pobail Bheanntrai, Bantry, Co Cork","Carrignagat, Bantry, Co. Cork, Ireland",51.6739835,-9.4463403
"Colaiste Cholmcille, Ballyshannon, Co Donegal","Coláiste Cholmcille, College St, Camp, Ballyshannon, Co. Donegal, Ireland",54.5032433,-8.1842886
"St Nathy''s College, Ballaghaderreen, Co Roscommon","Chapel Street, Ballaghadereen, Co. Roscommon, Ireland, Co. Roscommon, Ireland",53.90419,-8.581288
"Borrisokane Community College, Borrisokane, Co Tipperary","Borrisokane Church of Ireland, Fairgreen, Ballyhaden, Borrisokane, Co. Tipperary, Ireland",53.0010665,-8.1181204
"Pobalscoil Chloich Cheannfhaola, Letterkenny, Co Donegal","Ballyconnell, Falcarragh, Co. Donegal, F92 KR25, Ireland",55.1418815,-8.099637
"Wexford CBS Secondary School, Thomas Street, Wexford","Thomas St, Slippery Green, Wexford, Ireland",52.333357,-6.4650908
"St Joseph''s Community College, Kilkee, Co Clare","Dough West End, Dough, Co. Clare, Ireland",52.6818076,-9.646753
"St John Bosco Community College, Kildysart, Co Clare","Cahiracon, Kildysart, Co. Clare, Ireland",52.6726705,-9.1046003
"Ardscoil Rath Iomghain, Rathangan, Co Kildare","Rathangan, Rathangan Demesne, Rathangan, Co. Kildare, Ireland",53.2183382,-6.9941143
"Coola Post Primary School, Riverstown, Co Sligo","Riverstown, Carrickcoola, Via Boyle, Co. Sligo, F52 XE71, Ireland",54.1538951,-8.3759378
"Piper''s Hill College, Naas, Co Kildare","Killashee, Piper's Hill Campus, Naas, Co. Kildare, Ireland",53.1954453,-6.669876
"Ballybay Community College, Ballybay, Co Monaghan","R180, Corrybrannan, Co. Monaghan, Ireland",54.123694,-6.901818
"Colaiste Mhuire, Johnstown, Co Kilkenny","Urlingford Rd, Glebe, Johnstown, Co. Kilkenny, Ireland",52.7443664,-7.5596697
"Holy Family Community School, Rathcoole,  Co Dublin","Rathcoole, Co. Dublin, Ireland",53.2801699,-6.4767635
"Rockford Manor Secondary School, Blackrock, Co Dublin","Rockford Manor secondary school, Stradbrook Rd, Blackrock, Dublin, Ireland",53.287178,-6.162801
"St Mogue''s College, Belturbet, Co Cavan","Bawnboy, Co. Cavan, Ireland",54.122559,-7.6775437
"Saint Dominic''s College, Ballyfermot, Dublin 10","10 Kylemore Rd, Chapelizod, Ballyfermot, Co. Dublin, Ireland",53.3445522,-6.3472355
"Colaiste Na Sionna, Banagher, Co Offaly                                                         ","Kylebeg, Banagher, Co. Offaly, Ireland",53.1868093,-7.9863692
"Scoil na mBraithre, Dungarvan, Co Waterford","Mitchell St, Dungarvan, Co. Waterford, Ireland",52.0878205,-7.6227649
"Dunmore Community School, Co Galway, 2Dunmore Community School","Barrack St, Abbeyland South, Dunmore, Co. Galway, Ireland",53.616655,-8.7400639
"Gairmscoil na bPiarsach, Rosmuc, Co Galway (G)                                                    ","An Gort Mór, Rosmuck, Co. Condae na Gaillimhe, Ireland",53.3868091,-9.6105291
"O''Carolan College, Nobber, Co Meath ","O'Carolan College, Nobber, Co. Meath, Ireland",53.8173128,-6.7419012
"St Kevin''s CBS, Arklow, Co Wicklow","Coolgreaney Rd, Sheephouse, Arklow, Co. Wicklow, Ireland",52.7975306,-6.1660971
"Presentation Secondary School, Clonmel, Co Tipperary","Dungarvan Rd, Greenan, Clonmel, Co. Tipperary, Ireland",52.3487105,-7.717249
"Monaghan Collegiate School, Corlatt, Monaghan","Corlatt, Corlat, Monaghan, Ireland",54.2412459,-6.9395153
"Avondale Community College, Rathdrum, Co Wicklow","Rathdrum, Co. Wicklow, Ireland",52.9343558,-6.2361008
"Kildare Town Community School, Co Kildare, ","Dunmurry Rd, Crockanure Glebe, Co. Kildare, R51 D288, Ireland",53.169971,-6.9140788
"St Mary''s Secondary School, Baldoyle, Dublin 13","13 Main St, Baldoyle, Dublin, Ireland",53.3969916,-6.126854
"Gairm Scoil Chilleain Naofa (St Killian''s College), Ballinasloe, Co Galway","R348, Knockbrack, Co. Galway, Ireland",53.3009438,-8.4881895
"Colaiste Muire, Cobh, Co Cork","Bishop St, Kilgarvan, Cobh, Co. Cork, Ireland",51.8547853,-8.2937925
"Meanscoil Phadraig Naofa, Castleisland, Co Kerry","College Rd, Knockananlig, Castleisland, Co. Kerry, Ireland",52.2345409,-9.4578999
"Borris Vocational School, Borris, Co Carlow","Borris, Knocknagundarragh, Borris, Co. Carlow, Ireland",52.5972716,-6.9178413
"St Patrick''s College, Gardiner''s Hill, Cork","Gardiner's Hill, Montenotte, Cork, Ireland",51.9083252,-8.4549533
"Colaiste Lorcain, Castledermot, Co Kildare","Castledermot, Mullarney, Athy, Co. Kildare, Ireland",52.9092191,-6.8388259
"Colaiste Phobal Ros Cre, Roscrea, Co Tipperary","Corville Rd, Demesne, Roscrea, Co. Tipperary, Ireland",52.9538002,-7.7907329
"Causeway Comprehensive School, Tralee, Co Kerry","1 Tóchar View, Dromkeen West, Causeway, Co. Kerry, V92 EP46, Ireland",52.4118438,-9.7360539
"Largy College, Clones, Co Monaghan","1 Analore Rd, Legarhill, Monaghan, Co. Monaghan, Ireland",54.1791884,-7.2247265
"Athboy Community School, Athboy, Co Meath ","Mullaghstones, Athboy, Co. Meath, Ireland",53.6260616,-6.9134088
"Loreto College, Crumlin Road, Dublin 12","12 Crumlin Rd, Crumlin, Dublin 12, Ireland",53.329421,-6.297683
"Presentation / De La Salle College, Bagenalstown, Co Carlow","Presentation De La Salle College, Royal Oak Rd, Muine Bheag, Co. Carlow, Ireland",52.7009046,-6.9701113
"Mount Carmel Secondary School, Kings Inn Street, Dublin 1","King's Inns St, Rotunda, Dublin 1, D01 W657, Ireland",53.3520287,-6.2687145
"O''Connell School, North Richmond Street, Dublin 1","13 Richmond St N, Drumcondra, Dublin, D01 V1K2, Ireland",53.3584422,-6.2502078
"Colaiste an Chraoibhin, Fermoy, Co Cork","Coláiste an Chraoibhin, Duntaheen Rd, Duntahane, Fermoy, Co. Cork, Ireland",52.1352332,-8.2855797
"Oaklands Community College, Edenderry, Co Offaly","Sr Senan Avenue, Edenderry, Co. Offaly, Ireland",53.3368454,-7.0634784
"Bailieborough Community School, Bailieborough, Co Cavan","Virginia Rd, Tanderagee, Bailieborough, Co. Cavan, Ireland",53.9135139,-6.9735109
"Abbey Community College, Boyle, Co Roscommon","Abbey Community College, Upper Marian Rd, Termon, Boyle, Co. Roscommon, Ireland",53.969034,-8.29916
"Presentation Secondary School, Ballyphehane, Cork","Joe Murphy Rd, Ballyphehane, Cork, Ireland",51.8838438,-8.4784426
"Nagle Rice Secondary School, Doneraile, Co Cork","Doneraile, Horseclose, Doneraile, Co. Cork, Ireland",52.2215313,-8.5838574
"Fingal Community College, Swords, Co Dublin","Seatown Rd, Townparks, Swords, Co. Dublin, Ireland",53.460312,-6.217521
"St Clare''s College, Ballyjamesduff, Co Cavan","Virginia Rd, Kilmore, Ballyjamesduff, Co. Cavan, Ireland",53.8655449,-7.1973026
"St Columba''s Comprehensive School, Glenties, Co Donegal","Glenties, Gortnamucklagh, Glenties, Co. Donegal, Ireland",54.7994626,-8.2861285
"Davis College, Summerhill, Co Cork","Carhookeal, Mallow, Co. Cork, P51 H589, Ireland",52.1250351,-8.6414357
"Crana College, Buncrana, Co Donegal","Crana Rd, Ardaravan, Inishowen, Co. Donegal, Ireland",55.1349829,-7.4576821
"Ard Scoil Chiarain Naofa, Clara, Co Offaly ","Ard Scoil Chiaráin Naofa, Frederick St, Kilcoursey, Clara, Co. Offaly, Ireland",53.3406303,-7.6124299
"Pobalscoil Iosolde, Palmerstown, Dublin 20","Kennelsfort Rd Upper, Johnstown, Dublin, Ireland",53.3488913,-6.3768632
"Glanmire Community College, Glanmire, Co Cork","Glanmire Community College, Brooklodge, Glanmire, Co. Cork, Ireland",51.930853,-8.3843843
"Moyne Community School, Moyne, Co Longford","Moyne, Farmullagh, Moyne, Co. Longford, Ireland",53.9087849,-7.6473655
"St Mary''s Holy Faith, Killester, Dublin 5","Brookwood Meadow, Clontarf West, Dublin 5, Co. Dublin, D05 K588, Ireland",53.3792627,-6.2038294
"Gairmscoil Mhuire, Athenry, Co Galway                                                          ","Gairmscoil Mhuire, Caheroyn Road, Gorteenacra, Athenry, Co. Galway, Ireland",53.3013971,-8.7455249
"Tullamore College, Tullamore, Co Offaly ","Riverside, Tullamore, Co. Offaly, R35 XC66, Ireland",53.2756368,-7.4873
"Sancta Maria College, Louisburgh, Co Mayo","Louisburgh, Clooncarrabaun, Louisburgh, Co. Mayo, Ireland",53.76469,-9.8057109
"Old Bawn Community School, Tallaght, Dublin 24","24 Old Bawn Ave, Oldbawn, Dublin, D24 NVR4, Ireland",53.2804357,-6.3660551
"Adamstown Community College, Lucan, Co Dublin","Adamstown Community College, Station Rd, Adamstown, Lucan, Co. Dublin, Ireland",53.3365342,-6.4622851
"Castlerea Community School, Castlerea, Co Roscommon","Castlerea, Knockroe, Castlerea, Co. Roscommon, Ireland",53.7656374,-8.4837213
"Rosmini Community School, Drumcondra, Dublin 9","9 Grace Park Rd, Drumcondra, Dublin 9, Ireland",53.3710821,-6.2450121
"St Kevin''s College, Finglas, Dublin 11","Ballygall Rd E, Ballygall, Dublin 11, Ireland",53.3853781,-6.2778091
"St Fintinas Post Primary School, Enfield, Co Meath","Enfield Road, Clonguiffin, Meath, Ireland",53.4523753,-6.9161616
"St Patrick''s College, Killala, Co Mayo","Lacken Cross, Doonamona, Killala, Co. Mayo, Ireland",54.2294299,-9.2879252
"Loreto Community School, Milford, Co Donegal","Loreto Community School, Convent Rd, Millford, Milford, Co. Donegal, Ireland",55.0889377,-7.7090087
"Central Technical Institute, Clonmel, Co Tipperary","The Mall, Raheen, Clonmel, Co. Tipperary, Ireland",52.3537524,-7.695879
"St Clare''s Comprehensive School, Manorhamilton, Co Leitrim","Manorhamilton, Co. Leitrim, F91 FY82, Ireland",54.3019209,-8.1769719
"Caritas College, Ballyfermot, Dublin 10","10 Drumfinn Rd, Drumfinn, Dublin 10, Ireland",53.348866,-6.358627
"St Mary''s Academy CBS, Station Road, Carlow","Railway Rd, Rathnapish, Carlow, Ireland",52.8411987,-6.9234051
"Gallen Community School, Ferbane, Co Offaly ","Lower Main St, Ferbane, Co. Offaly, R42 N8P8, Ireland",53.269388,-7.8285363
"Jesus & Mary Secondary School, Enniscrone, Co Sligo","507 Mulberry St, Independence, KS 67301, USA",37.2467307,-95.7122751
"De La Salle College, Newtown, Waterford","Newtown Road Lower, Waterford, Ireland",52.253541,-7.102575
"Marian College, Ballsbridge, Dublin 4","4 Lansdowne Rd, Dublin Southside, Co. Dublin, Ireland",53.3330343,-6.2270398
"Mountmellick Community School, Mountmellick, Co Laois","Market St, Townparks, Mountmellick, Co. Laois, Ireland",53.1176082,-7.3271745
"Grennan College, Thomastown, Co Kilkenny","Lady's Well St, Thomastown, Co. Kilkenny, Ireland",52.5284997,-7.1433941
"Drumshanbo Vocational School, Drumshanbo, Co Leitrim","Drumshanbo Vocational School, Carricknabrack, Drumshanbo, Co. Leitrim, Ireland",54.0485338,-8.0464014
"St Paul''s Secondary School, Monasterevin, Co Kildare","Hopkin's Lane, Monasterevin, Co. Kildare, Ireland",53.1425507,-7.0665546
"Ardgillan College, Balbriggan, Co Dublin","Castleland, Balbriggan, Co. Dublin, K32 KK33, Ireland",53.6006598,-6.1805202
"Elphin Community College, Castlerea, Co Roscommon","Castlerea, Knockroe, Castlerea, Co. Roscommon, Ireland",53.7656374,-8.4837213
"2Scoil Mhuire, Buncrana, Co Donegal","Ardaravan, Buncrana, Co. Donegal, Ireland",55.131219,-7.4582273
