,School,FullAddress,Latitude,Longitude
0,"ST. LOUIS GIRLS NATIONAL SCHOOL, Park Road, Monaghan","Mullaghmonaghan, Monaghan, H18 HK31, Ireland",54.2456074,-6.9766257
1,"DERAVOY NATIONAL SCHOOL, Deravoy, Emyvale","Deravoy National School, Derryveagh, Emyvale, Co. Monaghan, Ireland",54.3563977,-7.024313599999999
2,"BALLINSPITTLE N S, Ballycatten, Ballinspittle","Ballycatten Terrace, Co. Cork, Ireland",51.6661349,-8.611422899999999
3,"MIDLETON CONVENT N S, Midleton, Co. Cork","Ashlin Rd, Castleredmond, Midleton, Co. Cork, P25 R248, Ireland",51.90773429999999,-8.164648099999999
4,"CLOCHAR DAINGEAN, An Phríomhsráid Uachtarach, Daingean Uí Chúis","Dingle, Co. Kerry, Ireland",52.1390931,-10.2710203
5,"MONARD N S, Monard, Solohead","Monard, Co. Tipperary, Ireland",52.51844269999999,-8.2234039
6,"BORRIS MXD N S, Lower Main Street, Borris","Borris, Knocknagundarragh, Borris, Co. Carlow, Ireland",52.5998385,-6.9208848
7,"ST BRIGIDS MXD N S, Beechpark Lawn, Castleknock","Beechpark Lawn, Castleknock, Dublin 15, Co. Dublin, D15 P820, Ireland",53.3752681,-6.361987099999999
8,"LUCAN B N S, Chapel Hill, Lucan","Chapel Hill, St. Edmondsbury, Lucan, Co. Dublin, Ireland",53.359626,-6.4436697
9,"CLOCHAR LORETO N S, Grange Road, Rathfarnham","Grange Rd, Rathfarnham, Dublin 14, Ireland",53.2913714,-6.278935199999999
10,"CENTRAL SENIOR MXD N S, Marlborough Street, Dublin 1","Marlborough St, North City, Dublin, Ireland",53.3513517,-6.255823599999999
11,"PRESENTATION GIRLS PRIMARY SCHOOL, Main Street, Maynooth","2 Dunboyne Rd, Maynooth, Co. Kildare, Ireland",53.38354469999999,-6.587465
12,"LISDOWNEY N S, Lisdowney, Ballyragget","Lisdowney, Ballyragget, Co. Kilkenny, Ireland",52.7889395,-7.3883646
13,"SCOIL LACHTAIN, Freshford, Co. Kilkenny","Freshford, Co. Kilkenny, Ireland",52.73076349999999,-7.396737099999998
14,"PRESENTATION CONVENT, Ballymakenny Road, Drogheda","Ballymakenny Rd, Greenbatter, Drogheda, Co. Louth, Ireland",53.7297495,-6.343637200000001
15,"SCOIL NAOMH MICHEAL, St. Mel's Road, Longford","St Mel's Rd, Deanscurragh, Longford, Ireland",53.7294138,-7.7964324
16,"FORGNEY N S, Cloncallow, Ballymahon","Forgney, Collierstown, Co. Longford, Ireland",53.5443953,-7.6988621
17,"AINE NAOFA N S, Fairgreen, Navan","Fair Green, Dillonsland, Navan, Co. Meath, Ireland",53.6514886,-6.6848538
18,"RATOATH JUNIOR N S, Fairyhouse Road, Ratoath","Ratoath, Jamestown, Ratoath, Co. Meath, Ireland",53.5031276,-6.4662755
19,"SHANGANAMORE N S, Shanganamore, Athy","Barrowhouse, Athy, Co. Laois, R14 K695, Ireland",52.95326129999999,-6.9893985
20,"BALLINAKILL MIXED N S, Ballinakill, Portlaoise","Church St, Ballinakill, Co. Laois, Ireland",52.8777604,-7.308844400000001
21,"PRESENTATION CONVENT (JNR), Harbour Street, Mullingar","Box 8 PO, Harbour St, Commons, Mullingar, Co. Westmeath, Ireland",53.52837599999999,-7.342556999999999
22,"S N BHRIDE, Emper, Ballynacargy","Emper, Co. Westmeath, Ireland",53.6030953,-7.583187199999999
23,"GRANGE CON N S, Grangecon, Dunlavin","Grangecon Parks, Grangecon, Co. Wicklow, Ireland",52.997873,-6.74315
24,"BALLYCONNELL N S, Ballyconnell, Tullow","Ballyconnell, Cullyleenan, Ballyconnell, Co. Cavan, Ireland",54.1136857,-7.581990599999999
25,"GLENEALY 1 N S, Glenealy, Co. Wicklow","Ballymanus Lower, Glenealy, Co. Wicklow, Ireland",52.9666341,-6.144572900000001
26,"ESKER N S, Esker, Athenry","Esker, Athenry, Co. Galway, Ireland",53.2786183,-8.6816856
27,"SCOIL CROI IOSA, Newcastle Road, Galway","Presentation Primary School, Newcastle Road, Galway, Ireland",53.27422019999999,-9.0626292
28,"S N POL NAOFA, Church Road, Castlerea","Demesne, Castlerea, Co. Roscommon, Ireland",53.7686571,-8.4924537
29,"BAILE AN CHUILINN N S, Ballinkillen, Muine Bheag","Ballinkillin, Ballinkillen, Co. Carlow, Ireland",52.65396,-6.93134
30,"LEITRIM MXD N S, Leitrim Village, Carrick-on-Shannon","The Dock Arts Centre, St Georges Terrace, Townparks, Carrick-On-Shannon, Co. Leitrim, N41 T2X2, Ireland",53.9450428,-8.096643199999999
31,"S N NA H-AILLE, Westown, Naul","Westown Ave, Hynestown, Naul Village, Co. Dublin, Ireland",53.5841591,-6.2883621
32,"STRAWBERRY HILL B N S, Blarney Street, Sunday's Well","1 Blarney St, Sunday's Well, Cork, Ireland",51.9008431,-8.5002409
33,"NEWTOWN DUNLECKNEY MXD, Newtown, Muinebheag","11 Main St, Clonegah, Co. Carlow, Ireland",52.72275819999999,-6.8767292
34,"S N CHUAN DOIR, Drombeg, Glandore","Drombeg, Glandore, Co. Cork, Ireland",51.564569,-9.087379499999999
35,"TIPPERARY JNR BN S, St Michael's Street, Tipperary","31 St Michael's St, Carrownreddy, Co. Tipperary, E34 X788, Ireland",52.4772019,-8.1599787
36,"ST MICHAELS NATIONAL SCHOOL, Danesfort, Co. Kilkenny","Saint Michael's National School, Pigeonpark, Danesfort, Co. Kilkenny, R95 X527, Ireland",52.5828769,-7.2416512
37,"STACKALLEN N S, Stackallen, Navan","Curniaghanstown, Navan, Co. Meath, Ireland",53.7107563,-6.620925
38,"KILTORMER N S, Kiltormer, Ballinasloe","Kiltormer, Moaty, Ballinasloe, Co. Galway, Ireland",53.2356206,-8.2743395
39,"KILNALECK MIXED N S, Barrack Road, Kilnaleck","Barrack Rd, Co. Cavan, Ireland",53.8583069,-7.318051700000001
40,"AGLISH N S, Aglish, Cappoquin","Aglish, Cappoquin, Co. Waterford, Ireland",52.0732106,-7.823561099999999
41,"TULLOHA NATIONAL SCHOOL, Bonane, Kenmare","Kenmare, Co. Kerry, Ireland",51.8801017,-9.5835203
42,"RATHOE NS, Rathoe, Co. Carlow","Rathoe National School, Rathtoe, Rathoe, Co. Carlow, Ireland",52.7875272,-6.799755299999999
43,"KILSKYRE MIXED N S, Kilskyre, Kells","Kilskyre, Kilskeer, Kells, Co. Meath, Ireland",53.6938579,-6.9959853
44,"S N COLUMCILLE, Tullydonnell, Togher","Tullydonnell, Togher, Co. Louth, Ireland",53.838053,-6.3361433
45,"ST. MOCHTA'S NATIONAL SCHOOL, Louth Village, Co. Louth","22 Feran Dr, Commons, Louth, A91 DT80, Ireland",53.95012850000001,-6.5435177
46,"BAILE AN PHUSTA N S, Ballapousta, Ardee","Smarmore, Ballapousta, Co. Louth, Ireland",53.8216201,-6.5584044
47,"BALLYCAHILL N S, Ballycahill, Thurles","Thurles, Co. Tipperary, Ireland",52.6801064,-7.8044421
48,"S N NAOMH PADRAIG, Carrowhill, Drumfries","Drumfries, Carroghill, Clonmany, Co. Donegal, Ireland",55.1988576,-7.393373799999999
49,"SCOIL NAOMH IÓSAF, Connaghkinnego, Ballymagan","Scoil Naomh Iósaf, Connaghkinnego, Connaghkinnagoe, Buncrana, Co. Donegal, Ireland",55.15701,-7.3541386
50,"GLOUNAGUILLAGH N S, Glannagilliagh, Caragh Lake","Glounaguillagh National School, Glannagilliagh, Caragh Lake, Co. Kerry, V93 HX07, Ireland",52.0720144,-9.8325634
51,"ST JOHNS, Goldengrove Road, Roscrea","Roscrea, Townparks, Roscrea, Co. Tipperary, Ireland",52.9551789,-7.798469600000001
52,"S N COR NA FOLA B, Cornafulla, Athlone","Cornafulla House, Cornafulla, Athlone, Co. Roscommon, Ireland",53.3753507,-8.0051352
53,"BALLINDINE B N S, Ballindine, Claremorris","Unit 2 /3, Claremorris Retail Centre, Ballindine Rd, Lugalisheen South, Claremorris, Co. Mayo, Ireland",53.6728505,-8.9567623
54,"DROMLEIGH N S, Dromleigh, Kilmichael","Dromleigh National School, Dromleigh, Macroom, Co. Cork, Ireland",51.8343868,-9.0383537
55,"FIRMOUNT MIXED N S, Firmount, Donoughmore","Firmount, Donoughmore, Co. Cork, Ireland",51.9877808,-8.6979103
56,"S N CILL ROSANTA, Kilrossanty, Kilmacthomas","Kilrossanty, Cutteen, Co. Waterford, Ireland",52.1782195,-7.540557
57,"BALLYNACARGY MIXED N S, Ballynacargy, Co. Westmeath","1 Carrickmore Estate, Moranstown, Ballynacarrigy, Co. Westmeath, N91 FR94, Ireland",53.58504199999999,-7.537257200000001
58,"ARDARA MIXED N S, Back Road, Ardara","Ardara Mixed National School, Back Rd, Ardara, Co. Donegal, Ireland",54.7640527,-8.4113885
59,"S N NAOMH PADRAIG, Barnacleagh, Arklow","Bearna Chle, Arklow, Co. Wicklow, Ireland",52.7982788,-6.1561499
60,"CENTRAL INFS SCHOOL, Marlborough Street, Dublin 1","Marlborough St, North City, Dublin, Ireland",53.3513517,-6.255823599999999
61,"S N RATH MOR, Rathmore, Naas","Rathmore West, Rathmore, Co. Kildare, Ireland",53.2060287,-6.569787799999999
62,"ST CANICE S CONVENT, Rosbercon, New Ross","Rosbercon, New Ross, Co. Wexford, Y34 VH61, Ireland",52.3975912,-6.9526612
63,"TIPPERARY G N S, St Michael's Street, Tipperary","Courtville, St Michael's St, Carrownreddy, Co. Tipperary, Ireland",52.47706849999999,-8.159969300000002
64,"BALLYFORAN MIXED N S, Ballyforan, Ballinasloe","Ballinasloe Ballyforan Ballinasloe, Ballyforan, Co. Galway, Ireland",53.4697671,-8.2735544
65,"CASTLELYONS B N S, Castlelyons, Co. Cork","Castlelyons National School, Ballinvarrig East, Castlelyons, Co. Cork, Ireland",52.0826369,-8.229103199999999
66,"CROAGH NATIONAL SCHOOL, Croagh, Rathkeale","Ballycannon, Croagh, Co. Limerick, Ireland",52.5343874,-8.8733756
67,"BALLINTOGHER N S, Kingsfort, Ballintogher","Kingsfort, Ballintogher, Co. Sligo, Ireland",54.2006449,-8.3649676
68,"S N BAILE UI GHIBLIN, Ballygiblin, Mitchelstown","Mitchelstown, Ballinwillin, Mitchelstown, Co. Cork, Ireland",52.2662127,-8.2698863
69,"SCOIL NAIS MOLAISE, Parknakyle, Old Leighlin","Old Leighlin, Co. Carlow, Ireland",52.739728,-7.033688199999999
70,"DUALLA N S, Dualla, Cashel","Dualla NS, Rathclogh North, Dualla, Co. Tipperary, E25 E288, Ireland",52.5396762,-7.8158601
71,"CROWENSTOWN N S, Crowenstown, Delvin","Crowenstown House, Crowinstown Great, Delvin, Co. Westmeath, Ireland",53.6112835,-7.037031799999999
72,"MILLSTREET CONVENT N S, West End, Millstreet","Millstreet, Drominahilla, Millstreet, Co. Cork, Ireland",52.05892129999999,-9.0657421
73,"ST OLIVERS NS, Dundalk Street, Carlingford","Dundalk St, Liberties of Carlingford, Carlingford, Co. Louth, Ireland",54.03713219999999,-6.184393699999999
74,"TEMPLEGLANTINE N S, Templeglantine East, Co. Limerick","Templeglantine, Templeglentan East, Templeglantine, Co. Limerick, Ireland",52.3946392,-9.180080499999999
75,"S N NAOMH EOIN, Rath, Fivealley","Scoil Náisiúnta Naomh Eoin, Páirceanna an Bhaile, Biorra, Co. Contae Uíbh Fhailí, Ireland",53.0980052,-7.909688200000001
76,"Knockaderry Farranfore National School, Farranfore, Killarney","Farranfore, Co. Kerry, Ireland",52.1715992,-9.5477977
77,"LACKAMORE N S, Lackamore, Newport","Newport, Co. Tipperary, V94 V5D1, Ireland",52.69482499999999,-8.3222579
78,"S N MHUIRE, Bauroe, Feakle","Baurroe, Feakle, Co. Clare, Ireland",52.9260682,-8.6486521
79,"CLOYNE NATIONAL SCHOOL, Cloyne, Co. Cork","Cloyne, Spital, Cloyne, Co. Cork, Ireland",51.861739,-8.1276595
80,"SAN ISADOIR, Nodstown South, Boherlahan","Boherlahan, Nodstown South, Cashel, Co. Tipperary, Ireland",52.5722306,-7.8932312
81,"SUNDAYS WELL G N S, Strawberry Hill, Blarney Road","Strawberry Hill, Sunday's Well, Old Blarney Road, Co. Cork, Ireland",51.9008895,-8.5003618
82,"TALLONSTOWN N S, Tallanstown, Dundalk","Tallanstown National School, Rathbrist, Tallanstown, Co. Louth, Ireland",53.9194496,-6.549706599999999
83,"S N MULLACH BUI, Castletowncooley, Riverstown","Riverstown, Loughanmhór, Co. Louth, Ireland",54.0052896,-6.2237442
84,"BANTEER N S, Banteer, Co. Cork","Clonmeen Road, Banteer, Co. Cork, Ireland",52.1311925,-8.890767799999999
85,"S N SHEANAIN, Corgrigg, Foynes","Ballynacragga North, Foynes, Co. Limerick, Ireland",52.6105253,-9.1051123
86,"St. Mary's National School, Lamb's Cross, Sandyford","Lambs Cross, Woodside, Dublin 18, Ireland",53.2641698,-6.2294117
87,"S N AN CHLAIS MHOR, Clashmore, Co. Waterford","Clash, Ballinclamper, Co. Waterford, Ireland",52.0861865,-7.561983700000001
88,"S N NAOMH PADRAIG, Baconstown, Enfield","Baconstown, Enfield, Co. Meath, Ireland",53.444229,-6.803101
89,"SCOIL NA GCOILLINI, Meelick, Swinford","Meelick, Loughane, Co. Mayo, Ireland",53.9224386,-9.0187502
90,"S N SLIABH A MHADRA, Ballyduff, Tralee","Slievawaddra, Ballyduff, Co. Kerry, Ireland",52.4606155,-9.7163034
91,"MERCY PRIMARY SCHOOL, Chapel Lane, Birr","Chapel Lane, Seefin, Birr, Co. Offaly, R42 TX89, Ireland",53.09317650000001,-7.9092669
92,"NEWTOWN N S, Newtown, Ardee","Newtown National School, Bigstown, Ardee, Co. Meath, Ireland",53.8203016,-6.6079867
93,"S N CAISEAL NA GCORR, Gort a Choirce, Leitir Ceanainn","Gortahork, Co. Donegal, Ireland",55.1200955,-8.1332033
94,"BALLYROAN B N S, Ballyroan Road, Rathfarnham","Ballyroan Rd, Willbrook, Dublin 16, Ireland",53.2863418,-6.294406299999999
95,"S N AINDREIS NAOFA, Leitrim, Kylebrack East","Liathdruim, Kylebrack, Loughrea, Co. Galway, Ireland",53.1399803,-8.4664135
96,"SCOIL NÁISIÚNTA BHANTIARNA LOURDES, Hospital Hill, Bunclody","Bunclody, Ballinapark, Bunclody, Co. Wexford, Ireland",52.6550857,-6.652193
97,"S N SEAN BAILE MOR, Main Street, Shanballymore","Shanballymore Lower, Shanballymore, Co. Cork, Ireland",52.2187977,-8.4759914
98,"WALSHESTOWN N S, Walshestown, Clogherhead","Walshestown, Co. Louth, Ireland",53.80603989999999,-6.307699700000001
99,"TOONAGH N S, Fountain, Ennis","Toonagh, Ennis, Co. Clare, Ireland",52.8903185,-9.0347438
100,"NAOMH PADRAIG BOYS, Cambridge Road, Ringsend","Cambridge Rd, Dublin, D04 AP98, Ireland",53.3433918,-6.2253548
101,"OWENBEG N S, Owenbeg, Culleens","Unnamed Rd, Shannonspark West, Easky, Co. Sligo, Ireland",54.286325,-8.9623692
102,"MULLACH N S, Mullagh, Ennis","Mullagh, Finnor More, Ennis, Co. Clare, Ireland",52.7996527,-9.4200258
103,"S N AN CHUIL, Coole, Mullingar","Fearmore, Coole, Co. Westmeath, Ireland",53.6992601,-7.3666546
104,"S N NAOMH PEADAR, Pouldine, Thurles","Thurles, Co. Tipperary, Ireland",52.6801064,-7.8044421
105,"BALLINDANGAN MIXED N S, Ballindangan, Mitchelstown","Ballindangan National School, Flemingstown, Mitchelstown, Co. Cork, Ireland",52.236282,-8.336495
106,"LISTOWEL PRESENTATION PRIMARY, Ballybunion Road, Listowel","Listowel, Co. Kerry, Ireland",52.4486895,-9.4961491
107,"CONVENT OF MERCY, Church Road, Newport","Sisters of Saint Joseph of Annecy, 173 Chepstow Rd, Newport NP19 8GH, UK",51.58978150000001,-2.9762643
108,"MOYGLASS N S, Moyglass, Fethard","Moyglass, Moglass, Fethard, Co. Tipperary, Ireland",52.5277526,-7.7081838
109,"SCOIL NAIS BHRIDE, Grange, Tullow","Grange Beg, Shillelagh Rd, Grangewat, Tullow, Co. Carlow, Ireland",52.837568,-6.7821554
110,"LEAMLARA MIXED N S, Leamlara, Co. Cork","Clash West, Leamlara, Co. Cork, Ireland",51.96986,-8.2639146
111,"S N CNOC AN BHILE, Knockavilla, Innishannon","Knockavilla, Knockgorm, Co. Cork, Ireland",51.8008055,-8.6848101
112,"S N BHIORAINN, Berrings, Co. Cork","Gortatray, Berrings, Co. Cork, Ireland",51.9374329,-8.6974398
113,"KILMESSAN MXD N S, Kilmessan, Co. Meath","Ringlestown, Kilmessan, Co. Meath, Ireland",53.5607122,-6.6626897
114,"SCOIL NAOMH EOIN, Ballincurrig, Cork","Scoil Naomh Eoin, Ballincurrig, Co. Cork, Ireland",51.9892109,-8.228012999999999
115,"KYLE N S, Kyle, Youghal","Kyle House, Kyle, Youghal, Co. Cork, Ireland",51.9531544,-7.941984300000001
116,"BALLYMARTIN N S, Manister, Croom","Granagh, Manister, Co. Limerick, Ireland",52.45026,-8.74915
117,"S N FIODHNACH, Feenagh, Kilmallock","Gortmore, Feenagh, Co. Limerick, Ireland",52.3901188,-8.880106699999999
118,"S N NAITHI NAOFA, Achonry, Tubbercurry","Achonry, Tubbercurry, Co. Sligo, Ireland",54.08011579999999,-8.6606961
119,"SCOIL NA NGASUR, Maree Road, Oranmore","Maree Rd, Oran More, Oranmore, Co. Galway, Ireland",53.2640706,-8.9309954
120,"SCOIL AN LINBH IOSA, St Francis Street, Galway","St Francis St, Galway, Ireland",53.27575299999999,-9.053799699999999
121,"SCOIL SEANAIN NAOFA, Clonlara, Co. Clare","Cloonlara, Co. Clare, Ireland",52.7242526,-8.5543906
122,"BALLYVONGANE MIXED N S, Ballyvongane, Aghinagh,","Ballyvongane National School, Bealnamorrive, Coachford, Co. Cork, Ireland",51.93198229999999,-8.8591582
123,"THOMASTOWN N S, Ardobireen, Thomastown","4 Árd Mhuire, Ardobireen, Golden, Co. Tipperary, E25 ET96, Ireland",52.4934094,-8.0190559
124,"BRACKLOON N S, Brackloon, Westport","Tawnynameeltoge, Brackloon, Co. Mayo, F28 E8Y9, Ireland",53.7545927,-9.5641037
125,"ROOSKEY N S, Rooskey, Carrick-on-Shannon","Rooskey, Roosky, Carrick On Shannon, Co. Leitrim, Ireland",53.8322125,-7.927311999999999
126,"CLOONACOOL N S, Cloonacool, Tubbercurry","Leitrim North, Cloonacool, Co. Sligo, Ireland",54.100753,-8.7778571
127,"SCOIL AN AINGIL CHOIMHEADAI, An Céideadh,, Ailt An Chorráin","Burtonport, Co. Donegal, Ireland",54.9973526,-8.4185728
128,"CRATLOE N S, Cratloe, Co. Clare","Cratloe Woods, Laghile, Co. Clare, Ireland",52.6995085,-8.7554178
129,"BALLYHASS MIXED N S, Ballyhass, Cecilstown","Cecilstown, Two Gneeves, Mallow, Co. Cork, Ireland",52.1741854,-8.804743
130,"SCOIL AN CROI NAOFA, St Canice's Road, Ballygall","St Canice's Rd, Glasnevin, Dublin, Ireland",53.3840933,-6.2738992
131,"KELLS PAROCHIAL N S, Navan Road, Kells","Carrick St, Gardenrath, Kells, Co. Meath, Ireland",53.7246994,-6.8670271
132,"S N BAILE MUIRNE, Ballymurn, Enniscorthy","Enniscorthy, Co. Wexford, Ireland",52.5068183,-6.581974600000001
133,"S N AN LEANA MOR, Lenamore, Co. Longford","Legan, Smithfield, Lenamore, Co. Longford, Ireland",53.6212481,-7.6308386
134,"LEHINCH N S, Lissatava, Hollymount","Lissatava, Hollymount, Co. Mayo, F12 FT92, Ireland",53.6595962,-9.0749359
135,"NEW INN B N S, New Inn, Cashel","Cashel, Co. Tipperary, Ireland",52.51590969999999,-7.8915829
136,"SCOIL NAOMH CHOLMCILLE, Oileán Thoraí, Co. Dhún na nGall","Scoil Naomh Cholmcille, Tory Island, Co. Donegal, Ireland",55.265006,-8.2245634
137,"S N MICHIL NAOFA, Woodbrook, Carrick-on-Shannon","Carrick-On-Shannon, Co. Leitrim, Ireland",53.94511559999999,-8.0861878
138,"COMHSCOIL CHONMHA S N, Main Street, Convoy","Main St, Lifford, Co. Donegal, Ireland",54.8329204,-7.482238400000001
139,"O CALLAGHANS MILLS N S, Iragh, O'Callaghan's Mills","Iragh, Lissane, O'Callaghansmills, Co. Clare, Ireland",52.8404847,-8.672217999999999
140,"PRESENTATION CONVENT, Dunmanway Road, Bandon","Dunmanway Rd, Coolfadda, Bandon, Co. Cork, Ireland",51.7488353,-8.7439316
141,"Tahilla Community National School, Tahilla, Sneem","Tahilla, Sneem, Co. Kerry, Ireland",51.8339385,-9.822846799999999
142,"LARAGH N S, Laragh, Bandon","Laragh, Bandon, Co. Cork, P72 RY79, Ireland",51.7578958,-8.789978399999999
143,"SCOIL NAOIMH EANNA, Killanny, Carrickmacross","Killanny, Lannat, Carrickmacross, Co. Monaghan, Ireland",53.9583425,-6.6496118
144,"ST COLUMBAS N.S, With Facility for Deaf Children, Douglas West","122 W Washington St, Ottawa, IL 61350, USA",41.3511757,-88.8415563
145,"CASTLEPOLLARD MIXED N S, Water Street, Castlepollard","Water St, Townparks, Castlepollard, Co. Westmeath, N91 Y206, Ireland",53.6815554,-7.296149299999999
146,"SN BAILE MHIC AIRT, S.N. Bhaile Mhic Airt, Dún Garbhán","Ballintlea North, Old Parish, Dungarvan, Co. Waterford, X35 CR20, Ireland",52.0067506,-7.6399254
147,"TRAFRASK MIXED N S, Trafrask, Adrigole (Beara)","Trafrask National School, Trafrask East, Adrigole, Co. Cork, Ireland",51.68724719999999,-9.6648601
148,"CLOCHAR SAN DOMINIC, Convent Road, Dun Laoghaire","Convent Rd, Dún Laoghaire, Dublin, Ireland",53.2923398,-6.1379416
149,"BAILIEBORO MODEL N S, Bailieborough, Co. Cavan","Bailieborough, Beckscourt, Bailieborough, Co. Cavan, Ireland",53.9171451,-6.973993399999999
150,"SCOIL MHICHIL NA BUACHAILLI, Patrick Street, Trim","Patrick St, Trim, Co. Meath, Ireland",53.5515853,-6.7915623
151,"DUNMANWAY MODEL N S, Bantry Road, Dunmanway","Dunmanway South, Dunmanway, Co. Cork, Ireland",51.7171333,-9.1157026
152,"S N AN GHOILIN, Goleen, Co. Cork","Goleen, Co. Cork, Ireland",51.4938734,-9.7095644
153,"S N CREACHMHAOIL, Crinnage, Craughwell","Crinnage, Craughwell, Co. Galway, Ireland",53.2368366,-8.7514183
154,"BURRISCARRA N S, Carrownacon, Ballyglass","Burriscarra, Ballintubber, Co. Mayo, Ireland",53.736857,-9.2428788
155,"St. Anne's National School, Main Street, Tyrellspass","Ballykilmore, Tyrrellspass, Co. Westmeath, N91 A5R7, Ireland",53.3888652,-7.375722400000001
156,"CHURCH HILL MIXED N S, Church Hill, Cuffesgrange","Church Hill National School, Church Hill, Cuffesgrange, Co. Kilkenny, Ireland",52.5999798,-7.308257499999999
157,"PRESENTATION PRIMARY SCHOOL, George's Hill, Halston Street","Halston St, Dublin 7, Ireland",53.3483489,-6.271549299999999
158,"SCOIL URSULA, Blackrock Road, Cork","Scoil Ursula, Blackrock Rd, Blackrock, Cork, Ireland",51.8956964,-8.4145188
159,"SCOIL BARR DUBH, Barraduff, Headford","Kilquane, Barraduff, Co. Kerry, Ireland",52.0593017,-9.3358106
160,"ROCKCORRY N S, Rockcorry, Co. Monaghan","Rockcorry, Corkeeran, Rockcorry, Co. Monaghan, Ireland",54.1178982,-7.0148382
161,"S N CILL CUILE, Kilcooley, Loughrea","N65, Ballydavid, Co. Galway, Ireland",53.20055809999999,-8.455274
162,"S N CILL RONAIN, Keadue West, Boyle","Kilronan, Camderry, Co. Roscommon, Ireland",54.0656885,-8.1770617
163,"DOOHAMLET N S, Doohamlet, Castleblayney","Doohamlet National School, Dernaglug, Castleblayney, Co. Monaghan, Ireland",54.1291448,-6.8306647
164,"BLESSINGTON 1 N S, Blessington Demesne, Blessington","Blessington Demesne, Red Lane, Co. Wicklow, Ireland",53.1759855,-6.5459079
165,"BOOTERSTOWN BOYS, Grotto Place, Booterstown","Grotto Pl, Merrion, Booterstown, Co. Dublin, Ireland",53.3089988,-6.1987888
166,"ATHY MODEL SCHOOL, Tomard, Athy","Model School, Tomard, Athy, Co. Kildare, R14 Y478, Ireland",53.0032201,-6.9856007
167,"SN MHAOLCHEADAIR, An Charraig, Baile na nGall","Carrick, Co. Donegal, Ireland",55.10454499999999,-8.2860586
168,"FREEMOUNT MIXED N S, Freemount, Charleville","Freemount, Knocknamuck, Charleville, Co. Cork, Ireland",52.2780563,-8.8845035
169,"VICARSTOWN MIXED N S, Gilclough, Vicarstown","Gilcagh, Co. Cork, Ireland",51.9547081,-8.6565838
170,"S N AN TSAILEAIN, Sylane, Tuam","Tuam, Co. Galway, Ireland",53.5141156,-8.8565177
171,"KILDIMO NATIONAL SCHOOL, Kildimo, Co. Limerick","Ballyvareen, Kildimo, Co. Limerick, Ireland",52.62116349999999,-8.8115252
172,"KNOCKEA NATIONAL SCHOOL, Knockea, Ballyneety","Knockea, Ballyneety, Co. Limerick, Ireland",52.6061053,-8.572205799999999
173,"DROMIN N S, Dromin, Dunleer","Dromin, Dunleer, Co. Louth, Ireland",53.8444493,-6.444409400000001
174,"Ringville National School, Ballinlaw, Slieverue","Ringville National School, Ballinlaw, Slieverue, Co. Kilkenny, Ireland",52.2987762,-7.0342952
175,"KILADANGAN N S, Kiladangan National School, Puckane","Ballycraggan, Glebe, Nenagh, Co. Tipperary, Ireland",52.9311708,-8.2390214
176,"LISRONAGH N S, Lisronagh, Clonmel","Lisronagh, Clonmel, Co. Tipperary, Ireland",52.4177263,-7.703890100000001
177,"GARRACLOON N S, Garracloon, Cloghans","Garracloon, Newtown Cloghans, Co. Mayo, Ireland",54.0907066,-9.2285528
178,"ST JOHNS CONVENT, Cathedral Place, Limerick","Cathedral Pl, Limerick, Ireland",52.6618831,-8.6163235
179,"CLONROCHE N S, Clonroche, Enniscorthy","Enniscorthy Rd, Enniscorthy, Co. Wexford, Ireland",52.44746689999999,-6.7245608
180,"St Patrick's NS, Corlough, Belturbet","Cornacleigh, Corlough, Co. Cavan, Ireland",54.1235639,-7.768897699999998
181,"BALLYCLOUGH MIXED N S, Ballyclough, Co. Cork","Ballyclogh, Co. Cork, Ireland",52.0618477,-8.0221901
182,"CULLENS N S, Faranoo, Ballina","Ballina, Faranoo North, Co. Mayo, Ireland",54.1380922,-9.163872699999999
183,"S N NAOMH FEICHIN, Cross, Claremorris","Clare, Claremorris, Co. Mayo, Ireland",53.72387639999999,-9.0017356
184,"S N LOCH GUIR, Patrickswell, Bruff","Lough Gur, Co. Limerick, Ireland",52.5163151,-8.5338763
185,"KILLYON N S, Hill of Down, Co. Meath","Killyon National School, Clondalee Beg, Hill of Down, Co. Meath, Ireland",53.4860249,-7.0024289
186,"MONREAGH N S, Monreagh, Carrigans","Monreagh National School, Monreagh, Carrigans, Co. Donegal, Ireland",54.95635600000001,-7.4571077
187,"ST JOSEPHS GIRLS N.S., Davitt Road, Mountmellick","Davitt Rd, Ballycullenbeg, Mountmellick, Co. Laois, Ireland",53.11336619999999,-7.3188819
188,"S N SEOSAMH, Blueball, Tullamore","Tullamore, Co. Offaly, Ireland",53.27552550000001,-7.4933852
189,"BANOGUE NATIONAL SCHOOL, Dohora, Banogue","Banogue, Ballynabanoge, Croom, Co. Limerick, Ireland",52.4807181,-8.7081204
190,"CLOGHROE MIXED N S, Cloghroe, Co. Cork","Cloghroe, Blarney, Co. Cork, T23 AH2R, Ireland",51.9178279,-8.6165928
191,"CULLEN N S, Cullen, Co. Tipperary","Cullen National School, Monearmore, Cullen, Co. Tipperary, Ireland",52.51158909999999,-8.2778414
192,"Ravenswell Primary School, Ravenswell, Bray","Dublin Rd, Ravenswell, Bray, Co. Wicklow, A98 X8X7, Ireland",53.20947289999999,-6.1102349
193,"HOLY FAMILY SNR, Station Road, Ennis","Station Rd, Clonroad Beg, Ennis, Co. Clare, Ireland",52.8420655,-8.9817448
194,"GLENGURT N S, Tournafulla, Ballagh","Glengurt, Knocknadiha, Tournafulla, Co. Limerick, Ireland",52.36298799999999,-9.163824000000002
195,"S N SCEICHIN A RINCE, Skeheenarinky, Burncourt","Burncourt, Co. Tipperary, Ireland",52.3113101,-8.0792299
196,"BALLINTUBBER N S, Ballintubber, Claremorris","Ballintubber NS Lufferton, Skehanagh Lower, Ballintober, Co. Mayo, F12 KW18, Ireland",53.758423,-9.3054749
197,"BALLYCURRANE N S, Clashmore, via Youghal","Ballycurrane, Clashmore, Co. Waterford, Ireland",52.0087143,-7.7721539
198,"St Josephs National School, Borrin-in-Ossory, Portlaoise","4 Church Street, Townparks, Borris-in-Ossory, Co. Laois, R32 TD51, Ireland",52.93938,-7.630776999999999
199,"SCOIL MHUIRE GAN SMAL, Ballygar, Co. Roscommon","Ballygar, Tullyroe, Ballygar, Co. Galway, Ireland",53.52256269999999,-8.3257391
200,"BROWNEKNOWE N S, Brownknowe, Ramelton","Brownknowe, Ramelton, Co. Donegal, Ireland",55.0606118,-7.6213522
201,"KILMOGANNY MIXED N S, Cottresllstown, Kilmoganny","Cottrellstown, Kilmoganny, Co. Kilkenny, Ireland",52.4613287,-7.3289369
202,"S N CNOC AN MHARCAIGH, Melview, Longford","Knockawalky, Melview, Co. Longford, Ireland",53.75998,-7.791879999999999
203,"GOLDENBRIDGE CONVENT, Saint Vincent Street West, Goldenbridge","Goldenbridge Walk, Inchicore, Dublin 8, D08 AY94, Ireland",53.3366415,-6.3190564
204,"BALLINDERREEN MXD N S, Ballinderreen, Kilcolgan","Ballinderreen, Co. Galway, Ireland",53.1849544,-8.909806399999999
205,"S N AN IORBALL RIABAIGH, Urblereagh, Malin Head","Urbalreagh National School, Urbalreagh, Malin Head, Co. Donegal, Ireland",55.3360596,-7.2878238
206,"ST FINTANS N S, New Line Road, Mountrath","New Line Cl, Mountrath, Co. Laois, Ireland",52.9986259,-7.478820299999999
207,"ST JOSEPH'S GIRLS NATIONAL SCHOOL, Convent Road, Clonakilty","Convent Rd, Scartagh, Clonakilty, Co. Cork, Ireland",51.6260391,-8.8808829
208,"ST PETERS N S SNR, Excise Street, Athlone","Excise St, Athlone, Co. Westmeath, Ireland",53.42181060000001,-7.9420892
209,"VILLIERSTOWN N S, Villierstown, Cappoquin","Ballingowan West, Villierstown, Co. Waterford, Ireland",52.08824449999999,-7.850768
210,"MONAGHAN MODEL SCHOOL, North Road, Monaghan","N Rd, Kilnacloy, Monaghan, Ireland",54.2511178,-6.9721702
211,"CHURCHTOWN N S, Churchtown, Athy","Churchtown, Athy, Co. Kildare, Ireland",53.0093311,-7.0516426
212,"KILGOBNET N S, Beaufort, Killarney","Kilgobnet, Beaufort, Kilgobnet, Killarney, Co. Kerry, Ireland",52.0655656,-9.729510699999999
213,"S N AILBHE, Killinure, Brittas",.,.,.
214,"BALLYSTEEN N S, Ballysteen, Askeaton","Beagh, Ballysteen, Co. Limerick, Ireland",52.6468164,-8.951775999999999
215,"S N OSMANN, Model School Road, Birr","Model School Rd, Townparks, Co. Offaly, Ireland",53.0994539,-7.9144953
216,"SCOIL NAOMH CARTHACH, Ballyfinane, Firies","Firies, Killahane, Killarney, Co. Kerry, Ireland",52.1708717,-9.596077
217,"TANG N S, Clogher, Tang","Corbrack, Tang, Co. Westmeath, Ireland",53.53517919999999,-7.792764900000001
218,"ST LAURENCES NATIONAL SCHOOL, Sallins, Co. Kildare","Kerdiffstown Road, Sallins, Co. Kildare, W91 AD80, Ireland",53.2483774,-6.6614967
219,"S N PHADRAIG, Edmonstown, Killucan","Glebe, Killucan, Co. Westmeath, Ireland",53.5136852,-7.142785699999999
220,"S N MHUIRE, Bawn Road, Swanlibar","Swanlinbar, Hawkswood, Swanlinbar, Co. Cavan, Ireland",54.1937636,-7.7047113
221,"Scoil an Ghleanna Pobal Scoil Náisi, Aghort The Glen, Baile an Sceilg",.,.,.
222,"ST SENANS NATIONAL SCH, Templeshannon, Enniscorthy","Templeshannon, Enniscorthy, Co. Wexford, Ireland",52.50453599999999,-6.5566341
223,"SCOIL NAOMH MICHEAL, West End, Sneem","Inchinaleega East, Sneem, Co. Kerry, V93 X243, Ireland",51.8385167,-9.9043117
224,"HOLY TRINITY NATIONAL SCHOOL, Newport Road, Westport","Newport Road, Cahernamart, Westport, Co. Mayo, Ireland",53.8017782,-9.521356299999999
225,"BOHERMORE N S, Srahane, Ballysimon","Bohermore, Anglode, Ballysimon, Co. Limerick, Ireland",52.61115789999999,-8.5250538
226,"GORTANUMERA N S, Ballyshrule, Ballinasloe","Ballyshrule, Creggeen, Ballinasloe, Co. Galway, Ireland",53.1125288,-8.287875699999999
227,"MASTERSONS N S, Church Lane, Manorhamilton","Church Ln, Manorhamilton, Co. Leitrim, Ireland",54.3051287,-8.1728495
228,"S N RATH DUBH, Rathduff, Grenagh","Rathduff, Co. Cork, Ireland",52.0167102,-8.5831059
229,"ARDPATRICK N S, Ardpatrick, Kilmallock","Sunville Upper, Ardpatrick, Co. Limerick, Ireland",52.34342760000001,-8.5188954
230,"SCOIL NAOMH SEOSAMH, Gortnaclohy, Skibberreen","Gortnaclohy Dr, Co. Cork, Ireland",51.5489214,-9.2457269
231,"SN TULLACH UI CHADHAIN, Tulach Uí Chadhain, Maigh Cuilinn","Killarainy, Moycullen, Co. Galway, Ireland",53.3387481,-9.1814776
232,"S N CRUABANAI, Crubany, Co. Cavan","Crubany, Co. Cavan, Ireland",53.9637748,-7.322989600000001
233,"ST CLARES PRIMARY SCHOOL, Ard Mhuire, Cavan","Cock Hill, Aghnaskerry, Cavan, Ireland",53.9924444,-7.3565801
234,"IOMAIR N S, Killimor, Ballinasloe","Killimor, Lisduneen, Ballinasloe, Co. Galway, Ireland",53.159153,-8.2017784
235,"LAURAGH NATIONAL SCHOOL, Lauragh Lower, Co. Kerry","Lauragh National School, Lauragh Lower, Co. Kerry, Ireland",51.7640706,-9.7774158
236,"BRUREE NATIONAL SCHOOL, Bruree, Co. Limerick","Kilmallock Rd, Fortyacres, Bruree, Co. Limerick, Ireland",52.4228841,-8.6491696
237,"THE HUNT N S, Castle Street, Mohill","Castle St, Mohill, Co. Leitrim, Ireland",53.9226451,-7.8650864
238,"S N MUIRE GAN SMAL, Coars, Mastergeehy","Coars, Cahirciveen, Co. Kerry, Ireland",51.9404602,-10.1117716
239,"LISSIVIGEEN MXD N S, Lissivigeen, Killarney","Lissyviggeen, Killarney, Co. Kerry, Ireland",52.0511318,-9.4588459
240,"KILCORNEY MIXED N S, Kilcorney, Rathcoole","Rathcoole National School, Mallow, Co. Cork, Ireland",52.0941821,-8.9734088
241,"ST NICHOLAS CHURCH OF IRELAND SCHOO, Blackabbey, Adare","N21, Gortaganniff, Adare, Co. Limerick, Ireland",52.567839,-8.784765
242,"MILLTOWN N S, Monea, Milltown","Money, Milltown, Co. Cavan, Ireland",54.0648764,-7.475286700000001
243,"CASTLEALACK N S, Castlelack, Bandon","Castlealack, Littlesilver, Bandon, Co. Cork, Ireland",51.78031739999999,-8.739436099999999
244,"ROCKFIELD N S, Rockfield National School, Knocknashangan","Rockfield National School, Cloghore, Ballyshannon, Co. Donegal, Ireland",54.4831575,-8.1192776
245,"NEWTOWNWHITE Educate Together NS, Ballysakeery, Ballina","Ballysakeery, Ballina, Co. Mayo, Ireland",54.1869044,-9.1795375
246,"S N AN BHAIN MHOIR, Cloghaun, Claregalway","Cloghaun, Clogher, Co. Galway, Ireland",53.3762503,-8.944668
247,"CARNANE MXD N S, Carnane, Fedamore","Carnane, Arywee, Kilmallock, Co. Limerick, Ireland",52.5712485,-8.5811768
248,"OUR LADY OF MERCY N S, Summerhill, Bantry","Our Lady of Mercy National School, Summerhill, Bantry, Co. Cork, Ireland",51.6789948,-9.4437041
249,"SHIELBEGGAN CONVENT, Shielbaggan, New Ross","Shelbaggan, Co. Wexford, Ireland",52.2621221,-6.8810477
250,"SCOIL MHUIRE, Magherarney, Smithborough","Magherarney, Magherarny, Smithborough, Co. Monaghan, Ireland",54.2166118,-7.1119168
251,"BOHER N S, Boher, Ballina","Boher, Killaloe, Co. Tipperary, Ireland",52.8020412,-8.3675674
252,"GEASHILL 1 N S, Geashill, Co. Offaly","Geashill, Co. Offaly, Ireland",53.234317,-7.322592299999999
253,"CASTLEDRUM N S, Castledrum, Castlemain","1 Tralee Rd, Ross, Castlemaine, Co. Kerry, V93 E510, Ireland",52.1742552,-9.7718559
254,"BALLINLOUGH N S, Ballinlough, Kells","R163, Smithstown, Co. Meath, Ireland",53.7323416,-7.028203
255,"S N LIOS TEILIC, Listellick, Tralee","4, Gurrane, Co. Kerry, V92 RC5C, Ireland",52.2981973,-9.694445499999999
256,"OUR LADYS ABBEY, Blackabbey, Adare","Scoil Na gCailini, Blackabbey, Adare, Co. Limerick, Ireland",52.5655422,-8.787864899999999
257,"GLENFLESK N S, Glenflesk, Killarney","Curraglass, Killeen, Glenflesk, Co. Kerry, V93 PX30, Ireland",51.99481790000001,-9.3131602
258,"RAHEEN NATIONAL SCHOOL, Raheen, Headford","Raheen, Headford, Raheen, Killarney, Co. Kerry, Ireland",52.0875478,-9.3662793
259,"CROOM NATIONAL SCHOOL, High Street, Croom","High St, Tooreen, Croom, Co. Limerick, Ireland",52.5209825,-8.7132966
260,"SCOIL NAIS MHUIRE, Drumphea, Bagenalstown","Drumfea, Hollybrook, Co. Carlow, Ireland",52.661413,-6.837131599999999
261,"NEWTOWNGORE N S 1, Mullyaster, Newtowngore","Mullyaster, Newtown Gore, Co. Leitrim, Ireland",54.0366588,-7.681145900000001
262,"ROCKMOUNT MIXED N S, Rockmount, Miltown Malbay","Rockmount, Slievenalice, Miltown Malbay, Co. Clare, V95 NY93, Ireland",52.8687078,-9.347160299999999
263,"MONOGAY NATIONAL SCHOOL, Monagea, Newcastle West","Newcastlewest, Glebe, Newcastle West, Co. Limerick, Ireland",52.41763419999999,-9.088093800000001
264,"ST LAURENCES N S, Crookstown, Ballytore","Crookstown, Ballytore, Crookstown Upper, Athy, Co. Kildare, Ireland",53.0208269,-6.8047559
265,"RINEEN N S, Rineen, Miltown Malbay","Rinneen, Miltown Malbay, Co. Clare, Ireland",52.89074489999999,-9.389024899999999
266,"ST JOSEPHS PRIMARY SCHOOL, Murgasty Road, Tipperary Town","Murgasty Rd, Carrownreddy, Tipperary, Ireland",52.4793428,-8.162509
267,"BALSCADDEN N S, Balscadden, Ring Commons","Ring Commons, Co. Dublin, Ireland",53.6155292,-6.231704499999999
268,"BALLINADEE N S, Ballinadee, Bandon","Ballinadee Church of Ireland, Ballinadee, Bandon, Co. Cork, Ireland",51.71378619999999,-8.6271343
269,"BURROW N S, Howth Road, Sutton","Howth Rd, Sutton, Dublin 13, Ireland",53.3913143,-6.100233999999999
270,"ST FRANCIS NS, Mullanalamphry, Barnesmore","Mullanalamphry, Co. Donegal, Ireland",54.6874178,-8.0218055
271,"KILLEENDUFF N S, Killeenduff, Easkey","Killeenduff National School, Killeenduff, Easky, Co. Sligo, Ireland",54.2747394,-8.9236917
272,"ST JAMES N S, Cappagh, Askeaton","Cappagh Castle, Ballingarrane, Askeaton, Co. Limerick, Ireland",52.5540599,-8.9287608
273,"KNOCKNAGOSHEL NATIONAL SCHOOL, Knocknagoshel, Tralee","Moyderwell, Cloon Beg, Tralee, Co. Kerry, Ireland",52.2681291,-9.6997039
274,"GLENMAQUIN NO 2 N S, Knockbrack, Letterkenny","Knockbrack, Letterkenny, Co. Donegal, Ireland",54.9124843,-7.6905796
275,"ST JOSEPHS BOYS N S, Terenure Road East, Dublin 6","Terenure Rd E, Terenure, Dublin 6, Ireland",53.3096938,-6.2820242
276,"POWERSCOURT N S, Cookstown Road, Enniskerry","Cookstown, Enniskerry, Co. Wicklow, A98 K7X6, Ireland",53.1885764,-6.1673643
277,"BALLYMACELLIGOTT 1 N S, Flemby, Ballymacelligott","Ballymacelligott, Forge Cross, Co. Kerry, Ireland",52.2463945,-9.5980417
278,"TULLASLEASE MIXED N S, Tullylease, Charleville","Tullylease, Co. Cork, Ireland",52.31449689999999,-8.9394165
279,"S N LEITIRGEIS, Lettergesh West, Renvyle","Lettergesh West, Co. Galway, Ireland",53.5859221,-9.911751299999999
280,"The Black Valley National School, Dunloe Upper, Beaufort","Black Valley, Beaufort, Killarney, Co. Kerry, Ireland",51.985706,-9.646616
281,"S N BHAILE AN CHROSAIGH, Ballyduff, Tralee","Lacka East, Ballyduff, Co. Kerry, Ireland",52.45455159999999,-9.662905199999999
282,"CLOGHOOLA MIXED N S, Cloughoulamore, Millstreet","Drominahilla, Millstreet, Co. Cork, Ireland",52.06013180000001,-9.0647121
283,"AGHATUBRID N S, Direen, Caherciveen","Kilcoman, Cahirciveen, Co. Kerry, Ireland",51.8911378,-10.2281816
284,"MARTINSTOWN N S, Martinstown, Kilmallock","Martinstown House, Martinstown, Kilmallock, Co. Limerick, Ireland",52.3974388,-8.478998100000002
285,"GRANAGH NATIONAL SCHOOL, Granagh, Kilmallock","Granagh House, Granagh, Kilmallock, Co. Limerick, Ireland",52.4593125,-8.763609299999999
286,"STANHOPE ST CONVENT, Manor Street, Stoneybatter","Manor St, Stoneybatter, Dublin 7, D07 DY60, Ireland",53.3526416,-6.282914
287,"CURRANES N S, Scoil Ide, Curranes","Currans, Cahereen East, Castleisland, Co. Kerry, Ireland",52.2300415,-9.4659594
288,"UPPER NEWTOWN N S, Newtown Upper, Faugheen","Newtown Manor, Carrickbeg, Carrick-On-Suir, Co. Tipperary, Ireland",52.3437928,-7.417961999999999
289,"COOLICK NATIONAL SCHOOL, Coolick, Kilcummin","Kilcummin House, Coollick, Killarney, Co. Kerry, Ireland",52.1249321,-9.5055646
290,"MACROOM CONVENT N S, New Road, Macroom","Chapel Hill, Sleveen East, Macroom, Co. Cork, Ireland",51.903175,-8.956614
291,"LOUGHGUITANE N S, Dromickbane, Muckross","Dromickbane, Killarney, Co. Kerry, V93 RF96, Ireland",52.0253654,-9.455939599999999
292,"Scoil Bhríde, Scartlea, Muckross","Muckross, Scartlea, Killarney, Co. Kerry, Ireland",52.0392638,-9.4739618
293,"CREESLOUGH N S, Creeslough, Letterkenny","Letterkenny, Co. Donegal, Ireland",54.9558392,-7.7342787
294,"S N NAOMH TREASA, Killure, Ahascragh","Killure, Ahascragh West, Ahascragh, Co. Galway, Ireland",53.398941,-8.3344002
295,"LACKEN MXD N S, Lacken, Blessington","Lake Dr, Lackan, Co. Wicklow, W91 Y5V0, Ireland",53.1389345,-6.4903712
296,"S N MHUIRE NA TROCAIRE, Convent Road, Cahir","Townparks, Cahir, Co. Tipperary, Ireland",52.3745296,-7.925247000000001
297,"MOIN AN BHEALAIGH N S, Valleymount, Blessington","Valleymount, Glenbride, Valleymount, Blessington, Co. Wicklow, Ireland",53.1063769,-6.52454
298,"CORLISS N S, Corliss, Killeshandra","Portaliff Glebe, Killashandra, Co. Cavan, Ireland",54.0138727,-7.5282313
299,"TASHINNY N S, Tashinny, Ballymahon","Taghshinny, Colehill, Co. Longford, Ireland",53.5918533,-7.6971425
300,"CROCHAN NAOFA N S, Caherdaniel, Killarney","Caherdaniel, Killarney, Co. Kerry, Ireland",51.7742233,-10.1108589
301,"S N ACHADH EOCHAILLE, Ahiohill, Enniskeane","Aghyohil Beg, Ahiohill, Co. Cork, Ireland",51.70567,-8.88384
302,"DRUMACRUTTIN N S, Drumacrutten, Dunraymond","Drumacrutten, Drumacruttan, Drumacruttin, Co. Monaghan, Ireland",54.1958353,-6.940623100000001
303,"SCOIL NAOMH MEARNOG, Strand Road, Portmarnock","Strand Rd, Burrow, Portmarnock, Co. Dublin, Ireland",53.4219778,-6.135202899999999
304,"SCOIL NUACHABHAIL, Gortatlea, Tralee","Cloonalour, Tralee, Co. Kerry, Ireland",52.27299679999999,-9.6994739
305,"CHARLEVILLE N S, Church View, Tullamore","Church Rd, Charleville, Tullamore, Co. Offaly, Ireland",53.2733025,-7.481496399999999
306,"SCOIL MHUIRE B&C, Cordal, Castleisland",.,.,.
307,"SCOIL MHUIRE, Boyher, Rockcorry","Corkeeran, Rockcorry, Co. Monaghan, Ireland",54.1178982,-7.0148382
308,"ALL SAINTS N S, Carysfort Avenue, Blackrock","Carysfort Ave, Stillorgan Park, Blackrock, Co. Dublin, Ireland",53.2892889,-6.1809426
309,"KILGARIFFE N S, Old Timoleague Road, Clonakilty","Kilgarriffe National School. Old Timoleague Road, Desert,, Desert, Clonakilty, Co. Cork, Ireland",51.6260801,-8.874350999999999
310,"SCOIL EASA DHUIBHE, Asdee, Co. Kerry","Asdee, Astee East, Listowel, Co. Kerry, Ireland",52.5520897,-9.5396175
311,"FERMOY ADAIR N S, Greenhill, Fermoy","Green Hill, Rath-Healy, Fermoy, Co. Cork, P61 V603, Ireland",52.1427175,-8.274057899999999
312,"BALLYDREHID N S, Ballydrehid, Cahir","Ballydrehid, Cahir, Co. Tipperary, Ireland",52.4015639,-7.963147500000001
313,"COSBY N S, Main Street, Stradbally","Stradbally, Co. Laois, R32 VP9F, Ireland",53.01344049999999,-7.1454198
314,"ST BRENDANS NATIONAL SCHOOL, Wolfe Tone Square, Bantry","Harbour View, Town Lots, Bantry, Co. Cork, P75 KF96, Ireland",51.6814766,-9.454777499999999
315,"S N AN ARD MHOIR, Aird Mhoir, Cill Chiarain","Kilkieran, Co. Galway, Ireland",53.3227089,-9.7369713
316,"KILBARRON N S, Belleek Road, Ballyshannon","Kilbarron, NS, Co. Donegal, Ireland",54.5341212,-8.2298638
317,"CHAPELIZOD N S, Martin's Row, Chapelizod","Martin's Row, Chapelizod, Dublin, D20 PH32, Ireland",53.350269,-6.3450544
318,"BALLYMANA N S, Ballymana, Craughwell","Cahergal, Craughwell, Co. Galway, Ireland",53.1987809,-8.7108922
319,"KILBRIDE N S, Manor Kilbride, Blessington","Manor, Kilbride, Blessington, Co. Wicklow, Ireland",53.1982029,-6.467363799999999
320,"SOUTH ABBEY NS, Golf Links Road, Youghal","Golf Links Rd, Youghal-Lands, Youghal, Co. Cork, P36 HN47, Ireland",51.9478747,-7.8505461
321,"BALLINCARRIGA MXD N S, Ballincarriga, Dunmanway","Ballynacarriga, Dunmanway, Co. Cork, Ireland",51.7046192,-9.0365861
322,"CLONTIBRET N S, Aghnameal, Clontibret","R184, Aghnameal, Co. Monaghan, Ireland",54.1945676,-6.8502914
323,"SCOIL AN FHIRTEARAIGH, Baile an Fheirtéaraigh, Co. Chiarraí","Gortmore, Ballyferriter Village, Co. Kerry, Ireland",52.16615,-10.40599
324,"BOSTON N S, Boston, Tubber","Tubber Rd, Drumnadeevna, Gort, Co. Galway, Ireland",53.0311572,-8.9314536
325,"COBH N S, Bellevue, Cobh","Bellvue, Cobh, Co. Cork, P24 FE08, Ireland",51.8520051,-8.2871191
326,"Scoil Chorp Chríost, Knockanure, Moyvane","Gortdromagownagh, Knockanure, Co. Kerry, Ireland",52.46585,-9.370809999999999
327,"BALLYOUGHTER N S, Ballyoughter, Gorey","Balloughter, Co. Wexford, Ireland",52.6150252,-6.3733236
328,"DRUMBARRAGH N S, Drumbaragh, Kells","Drumbaragh, Kells, Co. Meath, Ireland",53.7261886,-6.9407333
329,"PRESENTATION CONVENT NATIONAL SCHOOL, Kilkenny Street, Castlecomer","Scoil Mhuire Gan Smal, Kilkenny St, Glebe, Castlecomer, Co. Kilkenny, Ireland",52.8028483,-7.2099428
330,"CASTLEPOLLARD PAROC.N S, Pakenhamhall Road, Castlepollard","Pakenhamhall Rd, Co. Westmeath, Ireland",53.67951,-7.304309999999999
331,"S N NA COILLE GLAISE, Kilglass, Ahascragh","Kilglass, Co. Galway, Ireland",53.4150181,-8.349777099999999
332,"TUBBER N S, Tubber, Co. Clare","H91 HY6K, Monreagh, Tubber, Co. Clare, H91 HY6K, Ireland",52.9905351,-8.8942661
333,"RATHKEALE N S 2, Church Street, Rathkeale","Rathkeale, Englishtenements, Rathkeale, Co. Limerick, Ireland",52.5187833,-8.9448259
334,"S N MHUIRE DE LOURDES, The Village, Lixnaw","Scoil Mhuire De Lourdes, Ballynageragh, Lixnaw, Co. Kerry, Ireland",52.4000795,-9.6168595
335,"THREEN N S, Trien, Castlerea","Trien, Castlerea, Co. Roscommon, Ireland",53.73239479999999,-8.552437399999999
336,"GARRYDOOLIS N S, Garrydoolis, Pallasgreen","National School, Garrydoolis, Limerick, Ireland",52.508177,-8.3359322
337,"KILBEG N S, Kilbeg, Thomastown","Thomastown, Carlanstown, Co. Meath, A82 T657, Ireland",53.7910127,-6.8032185
338,"S N NAOMH BRID, Duagh, Listowel","Duagh, Listowel, Co. Kerry, V31 CD90, Ireland",52.4133363,-9.3879723
339,"S N NAOMH PEADAR, Bolton Street, Drogheda","Bolton St, Drogheda, Co. Louth, Ireland",53.7172225,-6.3549033
340,"ST MARYS N S, Dunleckney, Muine Bheag","L3044, Dunleckny, Dunleckney, Co. Carlow, Ireland",52.7098138,-6.9484302
341,"S N NAOMH PADRAIG, Scrabbagh, Kilmore",.,.,.
342,"SEIR KIERANS N S, Clareen, Birr","Churchland, Clareen, Co. Offaly, R42 KA97, Ireland",53.0696668,-7.785869099999999
343,"KILLESHANDRA National School ( C of I), Main Street, Killeshandra","Main St, Portaliff Glebe, Killeshandra, Co. Cavan, Ireland",54.01336389999999,-7.527651799999998
344,"CLOHANBEG N S, Cree, Kilrush","Clohanbeg, Cree, Cloghaun More (East), Kilrush, Co. Clare, Ireland",52.7619701,-9.3901275
345,"NEWMARKET B N S, West End, Newmarket","Newmarket, Co. Cork, Ireland",52.21448729999999,-9.0037442
346,"CLOONBONNIF N S, Cloonbonniffe, Castlerea","Cloonbonniff, Cloonbonniffe, Co. Roscommon, F45 FX92, Ireland",53.78127180000001,-8.5822179
347,"SN CILL MHIC ABHAIDH, Kilmacabea, Leap","Advie, Grantown-on-Spey PH26 3LP, UK",57.39470399999999,-3.4499949
348,"SN AN GHLEANNA, Glin South, Dingle","Glin South, Co. Kerry, Ireland",52.1752025,-10.2871726
349,"BURNFORT N S, Burnfort, Mallow","Burnfort, Mallow, Co. Cork, Ireland",52.06728080000001,-8.5978455
350,"SCOIL MHUIRE, An Tuairín, Béal an Daingin","Scoil Mhuire, Toureen, Bealadangan, Co. Galway, Ireland",53.30496549999999,-9.5947141
351,"DRUIMNE N S, Dromina, Charleville","Dromina, Co. Cork, Ireland",52.3140077,-8.8021272
352,"CARRICKERRY N S, Carrickerry, Athea","Carrigkerry National School, Knockaunnagun, Athea, Co. Limerick, Ireland",52.4924934,-9.1488334
353,"S N MUIRE GAN SMAL, Camus, Co. na Gaillimhe","Galway, Ireland",53.270668,-9.0567905
354,"BALLYGUILTENANE N S, Ballyguiltenane Upper, Glin","Ballygiltenan Upper, Ballyguiltenane, Co. Limerick, Ireland",52.53517,-9.27439
355,"KILMAGNER N S, Kilmagner, Fermoy","Kilmagner National School, Kilmagner, Fermoy, Co. Cork, Ireland",52.1245303,-8.1705176
356,"FAYTHE CONVENT, 99 The Faythe, Wexford","99 The Faythe, Maudlintown, Wexford, Y35 YT38, Ireland",52.3310718,-6.454110699999999
357,"SCOIL ATHA NA MBLATH, Kilcummin, Killarney","Killarney, Co. Kerry, Ireland",52.05993530000001,-9.5044265
358,"PORTROE N S, Nenagh, Co. Tipperary","Lisheentyrone, Portroe, Co. Tipperary, Ireland",52.88204229999999,-8.353964699999999
359,"BRITTAS BAY MXD N S, Ballynacarrig, Britta's Bay","Ballynacarrig, Ballinacarrig, Co. Wicklow, Ireland",52.9015603,-6.050578
360,"S N MHUIRE, Turlach Beag, Rosmuc","Turloughbeg, Co. Galway, Ireland",53.3397736,-9.629966999999999
361,"Sacred Heart National School, Caim, Caim, Enniscorthy","Caime, Caim, Enniscorthy, Co. Wexford, Ireland",52.5121081,-6.6796887
362,"GURTAGARRY N S, Gortagarry, Toomevara","Toomevara Church of Ireland, Church St, Blakefield, Nenagh, Co. Tipperary, Ireland",52.8207157,-7.978845799999999
363,"FAHA NATIONAL SCHOOL, Faha, Killarney","Faha House, Faha, Killarney, Co. Kerry, Ireland",52.1060983,-9.6418135
364,"BALLYCONELL CENTRAL N S, Church Street, Ballyconnell","Church St, Doon, Ballyconnell, Co. Cavan, Ireland",54.11730009999999,-7.586307399999999
365,"SCOIL BHREANAINN, Portmagee, Killarney","Portmagee, Co. Kerry, Ireland",51.8846627,-10.3684657
366,"MAHOONAGH N S, Main Street, Castlemahon","Mahoonagh National School, Main St, Mahoonagh More, Castlemahon, Co. Limerick, Ireland",52.4309324,-9.009584199999999
367,"LISNAMROCK N S, Coalbrook, Thurles","Curraheenduff, Co. Tipperary, E41 C858, Ireland",52.6118759,-7.586496599999999
368,"LISMOIL N S, Ballyline, Curraghboy","Liscam, Curraghboy, Co. Roscommon, Ireland",53.4846873,-8.1119678
369,"SLIEVEARDAGH N S, Kyleballygalvan, The Commons","Commons, Thurles, Co. Tipperary, Ireland",52.6250667,-7.5445816
370,"Shandrum National School, Newtownshandrum, Charleville","Newtownshandrum, Newtown South, Charleville, Co. Cork, Ireland",52.3454633,-8.767827
371,"CAVAN 1 N S, Farnham Street, Cavan","Farnham St, Abbeyland, Cavan, Ireland",53.9902405,-7.362817199999999
372,"ST PATRICKS N SCHOOL, Millbourne Avenue, Drumcondra","Millbourne Ave, Drumcondra, Dublin, Ireland",53.3701693,-6.2582575
373,"DROMAILI S N, Drumelis, Cavan","Drumelis, Co. Cavan, Ireland",54.0019174,-7.389211200000001
374,"CITY QUAY NS, City Quay, Gloucester Street South","Gloucester St S, Dublin Docklands, Dublin 2, Ireland",53.3466957,-6.2509863
375,"ST ANDREWS N S, Church Road, Malahide","Church Rd, Malahide, Co. Dublin, Ireland",53.4489278,-6.152989499999999
376,"ROSEGREEN N S, Rosegreen, Cashel","Rosegreen Post Office, Rosegreen, Cashel, Co. Tipperary, Ireland",52.4679247,-7.8313865
377,"WHITECHURCH NAT SCHOOL, Whitechurch Road, Rathfarnham","Whitechurch National School, Whitechurch Rd, Rathfarnham, Dublin 16, Ireland",53.2719359,-6.282270899999999
378,"NUNS CROSS N S, Nun's Cross, Ashford","Ashford, Co. Wicklow, Ireland",53.0178729,-6.1258971
379,"S N NAOMH BRID, Cloonluane, Renvyle","Renvyle, Tully, Co. Galway, Ireland",53.5951968,-9.957941
380,"BANSHA N S, Bansha, Kilkee","Bansha National School, Ballinlough East, Bansha, Co. Tipperary, Ireland",52.4476261,-8.0656106
381,"BEHEYMORE N S, Behymore, Ballina","Behy Rd, Behy More, Ballina, Co. Mayo, Ireland",54.11631870000001,-9.0956112
382,"CASTLEGREGORY MXD N S, Strand Road, Castlegregory","Castlegregory, Co. Kerry, Ireland",52.2588697,-10.0165495
383,"DOONBEG N S, Killard Road, Doonbeg","Doonbeg, Co. Clare, V15 HW73, Ireland",52.7314324,-9.528819
384,"S N CNOCH A DEAGA, Knockadea, Ballylanders","Knockadea, Co. Limerick, Ireland",52.3268071,-8.3309622
385,"CLOONDAFF N S, Cloondaff, Glenhest","Ballyteige, Co. Mayo, F28 Y261, Ireland",53.9395065,-9.4407443
386,"S N NEILL MOR, Killybegs, Co. Donegal","Drumbeagh, Co. Donegal, Ireland",54.6386696,-8.440523899999999
387,"CLOCHAR NA TOIRBHIRTE, Greenside South, Carrick-on-Suir","Greenside South, Knocknaconnery, Carrick-On-Suir, Co. Tipperary, Ireland",52.347987,-7.411509000000001
388,"RATHMICHAEL N S, Rathmichael, Shankill","Stonebridge Rd, Shankill, Dublin, Ireland",53.2361462,-6.1277496
389,"ST DAVIDS NS, Pipers Hill Educational Campus, Kilcullen Road","Pipers Hill Educational Campus, Kilcullen Rd, Killashee, Naas, Co. Kildare, W91 AE26, Ireland",53.1958432,-6.672530999999999
390,"SCOIL MHUIRE, Gilford Road, Sandymount","Gilford Rd, Sandymount, Co. Dublin, D04 DC04, Ireland",53.3283153,-6.2111718
391,"S N IOSEPH, Derryclogh Lower, Drinagh","Derryclogh Lower, Co. Cork, Ireland",51.63477109999999,-9.2010249
392,"BALLINLOUGH N S, Ballinlough, Co. Roscommon","Ballinlough, Co. Roscommon, F45 RY86, Ireland",53.7412503,-8.6355799
393,"COOLCAPPA N S, Ardagh, Co. Limerick","Coolcappagh, Ardagh, Co. Limerick, Ireland",52.52783770000001,-9.0243821
394,"CARRICKBEG N S, Crehana, Carrick-Beg","Crehanagh South, Carrick Beg, Carrick on Suir, Co. Waterford, Ireland",52.3315887,-7.4038621
395,"SCOIL CHÓCA NAOFA, Church Street, Kilcock","2 Church St, Commons East, Kilcock, Co. Kildare, W23 Y566, Ireland",53.4019522,-6.6678212
396,"SCOIL MHUIRE NS, Moylagh, Oldcastle","Mullagh, Oldcastle, Co. Meath, Ireland",53.7396677,-7.150937
397,"CONVENT OF MERCY, Whitemill Road, Wexford","Kennedy Park, Slippery Green, Wexford, Ireland",52.3298119,-6.4725315
398,"BODYKE N S, Coolreagh, Bodyke","Coolready, Bodyke, Co. Clare, Ireland",52.8816758,-8.6065768
399,"WHITEGATE MIXED N S, Corkbeg, Whitegate","Mosestown, Whitegate, Co. Cork, Ireland",51.8234779,-8.2355132
400,"S N RONAIN, Castlesampson, Bealnamulla","Castlesampson, Athlone, Co. Roscommon, Ireland",53.4127462,-8.097110899999999
401,"OUR LADY OF GOOD COUNSEL GNS, Abbey Road, Waterford","Ferrybank, Waterford, Ireland",52.2655751,-7.101734899999999
402,"ST LUKES N S DOUGLAS, Churchyard Lane, Douglas","Churchyard Ln, Douglas, Cork, T12 A395, Ireland",51.8738833,-8.436472499999999
403,"ST ANDREWS N S, St Edmundsbury, Lucan Road","Lucan Rd, St. Edmondsbury, Lucan, Co. Dublin, Ireland",53.36034919999999,-6.4356329
404,"LISCARROL N S, Liscarroll, Co. Cork","Liscarroll National School, Liscarroll, Co. Cork, Ireland",52.258985,-8.8063026
405,"ST JOHN THE BAPTIST N S, The Park, Midleton","Connolly St, Midleton, Co. Cork, Ireland",51.9160173,-8.1687871
406,"OUR LADY OF MERCY NS, Jim Brunnock Road, Kells","Jim Brunnock Road, Gardenrath, Kells, Co. Meath, A82 X571, Ireland",53.7250968,-6.8696779
407,"SCOIL NAOMH FIACHRA, Illistrin, Letterkenny","Ellistrin Little, Co. Donegal, Ireland",54.9956825,-7.731372899999999
408,"S N NAOMH ANTOINE, Kill, Kingstown","Kingstown, St Vincent and the Grenadines",13.1600249,-61.2248157
409,"BILLIS N S, New Inns, Ballyjamesduff","New Inn, Billis, Ballyjamesduff, Co. Cavan, Ireland",53.8868399,-7.145344799999999
410,"S N NAOMH PADRAIG, An Chloc Breac, An Fhairche","Scoil Náisúnta Naomh Pádraig, Cloonbur, Clonbur, Co. Galway, Ireland",53.54495,-9.3641499
411,"REAR N S, Rearcross, Newport","Shanballyedmond, Rear Cross, Co. Tipperary, Ireland",52.6863932,-8.2375229
412,"SCOIL BHRÍDE, Glen, Edgeworthstown","Glen, Edgeworthstown, Co. Longford, N39 TD42, Ireland",53.668767,-7.619686000000001
413,"S N CEATHRU NA LAITHIGH, Brownsgrove, Tuam","Tuam, Co. Galway, Ireland",53.5141156,-8.8565177
414,"St Joseph's National School, Ballure, Culleens","St.Joseph's, N.S, Ballyogan, Culleens, Co. Sligo, F26 FY07, Ireland",54.2131456,-8.9916444
415,"S N AN AIRD, Ardfield, Clonakilty","Ardfield National School, Carhoo, Clonakilty, Co. Cork, Ireland",51.57114559999999,-8.9104894
416,"TEMPLEBRADY N S, Church Road, Crosshaven","Crosshaven, Templebreedy, Co. Cork, Ireland",51.79826,-8.289920000000002
417,"CORBALLA N S, Corballa, Via Ballina","Corbally, Corballa, Co. Mayo, Ireland",54.1644096,-9.077014499999999
418,"MEELICKMORE N S, Meelick More, Claremorris","Meelickmore, Claremorris, Co. Mayo, F12 EK20, Ireland",53.7033475,-8.9461581
419,"PRESENTATION PRIMARY SCHOOL, Convent Road, Clonmel","Presentation Primary School, Convent Rd, Greenan, Clonmel, Co. Waterford, Ireland",52.3483708,-7.718085299999999
420,"St. John's National School, Drogheda Street, Monasterevin","Monasterevin, Co. Kildare, W34 K585, Ireland",53.1405722,-7.063063000000001
421,"S N NAOMH ANTAINE, Beechwood Park, Ballinlough","Beechwood Park, Ballinlough, Cork, T12 E400, Ireland",51.8879917,-8.447927
422,"S N NAOMH PADRAIG, Currabaggan West, Knockmore","Currabaggan West, Corraveggaun West, Knockmore, Co. Mayo, Ireland",54.04343799999999,-9.177771
423,"RUSH HALL MIXED N S, Pike-of-Rushall, Portloaise","Portlaoise, Co. Laois, Ireland",53.0328123,-7.298793300000001
424,"S N OIR CHEANN, Urhan, Eyeries","Eyeries, Co. Cork, Ireland",51.6951916,-9.9636184
425,"GOGGINSHILL N S, Goggins Hill, Ballinhassig","Ballyleigh, Gogginshill, Co. Cork, Ireland",51.8234798,-8.5783588
426,"WALTERSTOWN N S, Walterstown, Cobh","Walterstown National School, Walterstown, Cobh, Co. Cork, Ireland",51.86683859999999,-8.2362555
427,"CANOVEE MIXED N S, Carrigadrohid, Macroom","Canovee National School, Cooldrum, Carrigadrohid, Co. Cork, Ireland",51.8892904,-8.8561883
428,"ST CRONANS MIXED N S, Lusmagh, Banagher","Kylebeg, Banagher, Co. Offaly, Ireland",53.1726657,-8.0196366
429,"DARLEY N S, Monaghan Road, Cootehill","84-90 Bridge St, Munnilly, Cootehill, Co. Cavan, H16 P990, Ireland",54.07572099999999,-7.086536799999999
430,"S N INIS MEADHOIN, Inis Meáin, Oileann Árainn",.,.,.
431,"SHINRONE MIXED N S, Shinrone, Birr","Roscrea Rd, Shinrone, Birr, Co. Offaly, Ireland",52.9851285,-7.9231327
432,"S N MUIRE NA NAINGEAL, Sisters of Charity, Mary Street","Mary St, Oldbridge, Clonmel, Co. Tipperary, Ireland",52.3544542,-7.705230299999999
433,"S N NA HAILLE, The Neale, Ballinrobe","Nealepark, The Neale, Co. Mayo, Ireland",53.57378,-9.22527
434,"CLOGHER MXD N S, Ballydwyer East, Ballymecelligott","Ballydwyer East, Ballydwyer, Co. Kerry, Ireland",52.25507,-9.57912
435,"SWORDS BOROUGH N S, Church Road, Swords","The Old Borough National School, Church Rd, Swords Glebe, Swords, Co. Dublin, Ireland",53.4573267,-6.2232707
436,"S N NAOMH PADRAIG, Knocknasnaa, Abbeyfeale","Knocknasna, Abbeyfeale West, Abbeyfeale, Co. Limerick, Ireland",52.38499830000001,-9.3013897
437,"ST BRENDANS MONASTERY, Moorpark Street, Birr","Moorpark St, Drumbane, Birr, Co. Offaly, Ireland",53.0907869,-7.911378500000001
438,"S N EACHLEIME, Eachléim, Fód Dubh","Aghleam, Co. Mayo, Ireland",54.1182179,-10.1015402
439,"CURRIGLASS NS, Blackpool, Curraglass","Blackpool, Curraglass, Co. Cork, P51 AX94, Ireland",52.0943718,-8.0490424
440,"UNION HALL MIXED N S, Union Hall, Skibbereen","Union Hall National School, Clontaff, Unionhall, Co. Cork, Ireland",51.5533918,-9.1441097
441,"RUSHEEN NS, Rusheen, Coachford","Rusheen, Co. Cork, Ireland",51.934067,-8.8996275
442,"DONAGHMORE N S, Donoughmore, Donard","1, Davidstown, Donoughmore, Co. Wicklow, Ireland",52.9904826,-6.6270231
443,"S N GLEANN NA HULADH, Cloughleafin, Mitchelstown","Cloghleafin, Ballylough, Co. Cork, Ireland",52.2548477,-8.3538421
444,"BALTYDANIEL N S, Newtwopothouse, Mallow","Mallow County Hospital, Baltydaniel East, New Twopothouse, Co. Cork, Ireland",52.18598600000001,-8.6702517
445,"GARDINER STREET CONVENT, Gardiner Street, Belvedere Court","6 Belvedere Court, Mountjoy, Dublin, Co. Dublin City, Ireland",53.357882,-6.25894
446,"TIMOLEAGUE N S, School Road, Timoleague","Castle Lower, Timoleague, Co. Cork, Ireland",51.64245349999999,-8.764188899999999
447,"CRAGGAGH N S, Craggagh, Balla","Craggagh National School, Derryvohy, Balla, Co. Mayo, Ireland",53.8179141,-9.077598400000001
448,"GREENMOUNT MONASTERY NS, Green Street, Greenmount","Green St, Greenmount, The Lough, Cork, T12 HE14, Ireland",51.8911922,-8.4812239
449,"SLIEVERUE MIXED N S, Slieverue, Co. Kilkenny","Slieverue, Rathpatrick, via Waterford, Co. Kilkenny, X91 YA26, Ireland",52.2834423,-7.0667515
450,"GILSON NATIONAL SCHOOL, Chapel Street, Oldcastle","Church St, Knockmacoony, Oldcastle, Co. Meath, Ireland",53.7690196,-7.1587188
451,"S N EANNA, Roundstone, Co. Galway","Roundstone, Co. Galway, Ireland",53.39642079999999,-9.919018399999999
452,"KILBARRY N S, Kilbarry, Macroom","Kilbarry National School, Coolnacrannagh, Macroom, Co. Cork, Ireland",51.8621983,-9.0605709
453,"ST SAVIOURS N S, Station Road, Rathdrum","Rathdrum, Balleese Lower, Co. Wicklow, Ireland",52.9304749,-6.2283975
454,"S N URSULA NAOFA, Inner Ring Road, Waterford","Waterford, Ireland",52.2593197,-7.1100702
455,"CARN N S, Gurteen, Ballymote","Gurteen, Rathmadder, Ballymote, Co. Sligo, Ireland",53.9968262,-8.528307
456,"CLONMORE N S, Clonmore, Templemore","Ballysorrell Little, Clonmore Village, Co. Tipperary, E41 XW82, Ireland",52.8299157,-7.7657793
457,"St Patrick's National School, Church Road, Greystones","Church Rd, Rathdown Lower, Greystones, Co. Wicklow, Ireland",53.1493427,-6.0691875
458,"SN INBHEAR, Inver, Barnatra","Scoil Inbhear, Inver, Barnatra, Co. Mayo, Ireland",54.2511986,-9.8649436
459,"S N ROS DUMHACH, Ross Dumhach, Béal an Átha","Rosdoagh, Ross Port, Co. Mayo, Ireland",54.2853252,-9.796802000000001
460,"LURGA N S, Lurga, Gort","3 Sráid an Droichid, Lurga, An Gort, Co. Contae na Gaillimhe, H91 NPP0, Ireland",53.0123571,-8.8669459
461,"COOLARD MXD N S, Shronowen, Coolard","Coolard, Co. Kerry, Ireland",52.4829675,-9.539528599999999
462,"ARDAGH BOYS SENIOR NATIONAL SCHOOL, Ardagh, Rosscarbery","Townlands, Rosscarbery, Co. Cork, Ireland",51.5803726,-9.0296174
463,"CRUMLIN N S, Crumlin, Ballyglunin","Crumlin, Co. Galway, Ireland",53.3966943,-8.7901366
464,"GLENBROHANE N S, Glenbrohane, Garryspillane","Glenbrohane, Kilmallock, Co. Limerick, Ireland",52.3870712,-8.387692399999999
465,"PALLASKENRY N S, Pallas, Pallaskenry","Tobermurry, Pallaskenry, Co. Limerick, Ireland",52.6392744,-8.8675225
466,"COOLMEEN N S, Coolmeen, Kilmurray McMahon","NA, Coolmeen, Kilmurry McMahon, Co. Clare, V15 KR50, Ireland",52.65994569999999,-9.212848
467,"CLOGHEEN MXD N S, Kerry Pike, Co. Cork","Carrigrohane, Co. Cork, Ireland",51.9085415,-8.562249099999999
468,"ST. JOHNS NATIONAL SCHOOL, Battery Road, Longford","Battery Rd, Aughadegnan, Longford, Ireland",53.7399741,-7.8022222
469,"RUSHNACAHARA N S, Rushnachara, Durrus","Reenacappul, Rushnachara, Co. Cork, Ireland",51.60466,-9.623859999999999
470,"KILTEGAN N S, Kiltegan, Co. Wicklow","Kiltegan, Co. Wicklow, Ireland",52.9062271,-6.6042155
471,"KILADOOLEY MIXED N S, Killadooley, Borris-in-Ossory","Killasmeestia, Killadooley, Co. Laois, R32 A726, Ireland",52.892768,-7.6455441
472,"SCOIL AN FHAILL MOR, Foilduff, Caherciveen","Cahersiveen, Cahirciveen, Co. Kerry, Ireland",51.948286,-10.2238079
473,"SN SAILEARNA, Indreabhán, Co. na Gaillimhe","Aille, Co. Galway, Ireland",53.2458275,-9.3821231
474,"NAOMH GUASACHTA N S, Bunlahy, Ballinalee","Naomh Guasachta National School, Bunlahy, Ballinalee, Co. Longford, Ireland",53.7927669,-7.584614600000001
475,"MARSHALSTOWN N S, Marshalstown, Enniscorthy","Marshalstown, Co. Wexford, Y21 E954, Ireland",52.54787469999999,-6.6035384
476,"S N CNOC AN SAMHRAIDH, Crannagh, Summerhill","78 Portstewart Rd, Coleraine BT52 1SB, UK",55.150455,-6.686695
477,"KILDARE PLACE N S, 92/96 Rathmines Road Upper, Dublin 6","96 Rathmines Rd Upper, Rathmines, Dublin 6, Ireland",53.3185555,-6.2634534
478,"S N RONAIN NAOFA, Cloonloo, Via Boyle","Cloonloogh, Cloonloo, Co. Sligo, Ireland",53.97161,-8.40691
479,"BUNSCOIL NAOMH CHUANA, Kilcoona, Headford","Kilcoona, Headford, Co. Galway, H91 FX95, Ireland",53.4422564,-9.0426606
480,"FLOWERFIELD N S, Trim Road, Navan","Flowerfield National School, Trim Rd, Dillonsland, Navan, Co. Meath, Ireland",53.6456682,-6.6866343
481,"SAINT MICHAELS N S, Church Road, Ballina","Carrowcushlaun West, Ballina, Co. Mayo, Ireland",54.1078528,-9.1533042
482,"ST COLUMBAS MXD N S, Cloonagh, Dring","Dring, Co. Longford, Ireland",53.8175673,-7.5374095
483,"S N CEATHRU AN CHLOCHAR, Cloonee, Ballinrobe","Friarsquarter West, Ballinrobe, Co. Mayo, Ireland",53.6237338,-9.2211143
484,"SCOIL REALT NA MARA, Cromane, Killorglin","Lonart, Cromane, Co. Kerry, Ireland",52.1073899,-9.8743427
485,"SCOIL MHUIRE B, Killorglin, Co. Kerry","Castleconway, Killorglin, Co. Kerry, Ireland",52.1083268,-9.7876405
486,"ST MICHAELS, 11 Barrington Street, Limerick","11 Barrington St, Limerick, Co. Limerick, Ireland",52.6579963,-8.6301212
487,"ST PATRICKS N S, Ballyroebuck, Bunclody","Ballyroebuck, Bunclody, Co. Wexford, Ireland",52.6506838,-6.551450099999999
488,"DOONAHA N S, Doonaha West, Kilkee","Doonaha West, Kilkee, Co. Clare, Ireland",52.62315,-9.6477357
489,"DOUGLAS NATIONAL SCHOOL, Douglas, Killorglin","Unnamed Road, Douglas, Douglas, Co. Kerry, Ireland",52.1149626,-9.8394383
490,"UGHTYNEILL N S, Ughtyneill, Moynalty","Ughtyneill, Kells, Co. Meath, Ireland",53.8260102,-6.8790935
491,"CLOONLYON N S, Cloonlyon, Charlestown","Cloonlyon, Charlestown, Co. Mayo, Ireland",53.930644,-8.8383224
492,"S N TAMHNIGHAN FHEADHA, Tavneena, Charlestown",.,.,.
493,"S N COILM CILLE, Ros a'Mhíl, Baile na hAbhann","Rossaveel, Baile na, Co. Galway, Ireland",53.2736962,-9.540395799999999
494,"S N BHRIDE, Lackagh Beg, Turloughmore","Lackagh, Turloughmore, Co. Galway, Ireland",53.3688046,-8.889142399999999
495,"S N NAOMH SEOSAMH, Corroy, Ballymurray","Ballymurray, Co. Roscommon, Ireland",53.6005098,-8.1291146
496,"INCHIGEELA N S, Carrighleigh, Inchigeelagh","Inchigeelagh, Co. Cork, Ireland",51.8424464,-9.1264323
497,"ST JOSEPHS CONVENT, Lower Knockane Road, Newcastle West","Knockane Rd, Knockane, Co. Limerick, Ireland",52.4395742,-9.0674736
498,"S N CIANOG NAOFA, Timahoe, Coill Dubh","Blackwood, Co. Kildare, Ireland",53.2931573,-6.818584400000001
499,"OUR LADY OF MERCY N S, Carrigahilla, Stradbally","Carrickahilla, Stradbally, Co. Waterford, Ireland",52.1378868,-7.4671738
500,"KILFINANE CONVENT PRIMARY SCHOOL, Castle Street, Kilfinane","Kilfinnane, Kilfinane, Co. Limerick, Ireland",52.3586898,-8.4672787
501,"ST JOSEPHS CONVENT N S, Smith's Road, Charleville","Saint Joseph's Infant School, Smiths Ln, Rathgoggan Middle, Charleville, Co. Cork, Ireland",52.3546235,-8.685934
502,"S N LIOS A CUILL M, Corracoggil North, Lisacul","Corracoggil North, Lisacul, Co. Roscommon, Ireland",53.8592062,-8.6367412
503,"KILMOVEE IN S, Ballyglass, Kilmovee","Kilmovee, Co. Mayo, Ireland",53.88834610000001,-8.6882088
504,"S N AN DROMA MHOIR, Dromore, Bantry","Bantry, Co. Cork, Ireland",51.6800803,-9.452576299999999
505,"ST BRIDGETS MONASTERY BOYS SENIOR SCHOOL, Muinebheag, Co. Carlow","Saint Brigids De La Salle School, Stationhouse Rd, Kilcarrig, Muine Bheag, Co. Carlow, Ireland",52.7002488,-6.9547026
506,"CLARA CONVENT N S, Kilbeggan Road, Clara","Clara, Kilcoursey, Clara, Co. Offaly, Ireland",53.3421242,-7.603987999999999
507,"SCOIL DHAIRBHRE, Cruary, Clonakilty","Clonakilty, Co. Cork, Ireland",51.6203379,-8.905510399999999
508,"S N NAOMH COLM CILLE, The Quay, Westport","The Quay, Cloonmonad, Westport, Co. Mayo, Ireland",53.79806749999999,-9.5503204
509,"KNOCKANES MXD N S, Knockanes, Headford","Knockanes, Headford, Co. Kerry, Ireland",52.0335128,-9.3777531
510,"ST JOSEPHS N S, Derrydorragh, Clonken","Derrywash, Derrydorragh, Castlebar, Co. Mayo, Ireland",53.8216505,-9.3346277
511,"KILBERRY N S, Kilberry, Athy","Kilberry, Athy, Co. Kildare, Ireland",53.0507557,-7.0224208
512,"PADDOCK N S, Paddock, Mountrath","Paddock, Mountrath, Co. Laois, Ireland",53.0229542,-7.4985084
513,"ST COLUMBAS N.S., Ballyvaum, Inishturk","Bellavaum, Co. Mayo, Ireland",53.7019853,-10.1026716
514,"HIGH ST MIXED N S, Highstreet, Belmont","High St, Belmont VIC 3216, Australia",-38.1773299,144.3403023
515,"Taunagh National School, Riverstown, Co. Sligo","Riverstown, Cuiltylough, Riverstown, Co. Sligo, Ireland",54.130045,-8.397787
516,"ST ANNES CON N S, The Square, Castlerea","Castlereagh, Castlerea, Co. Roscommon, F45 WN59, Ireland",53.76632499999999,-8.4864534
517,"ST PATRICKS MXD N S, Loch Gowna, Co. Cavan","Loch Gowna, Co. Cavan, Ireland",53.87370490000001,-7.5336731
518,"HOLY FAMILY NATIONAL SCHOOL, Rathcoole, Co. Dublin","Rathcoole, Co. Dublin, Ireland",53.2801699,-6.4767635
519,"SN GLEANN A CHAISIL, Bunnahowen, Ballina","Ballina Rd, Glencastle, Bunnahowen, Co. Mayo, Ireland",54.1956429,-9.9090142
520,"ST KEVIN'S BALLYCOOG NS, Ballycoog, Avoca","Ballintemple, Ballycoog, Co. Wicklow, Ireland",52.8279334,-6.264315499999999
521,"CORMAIC NFA, Killeennashask, Garranard",.,.,.
522,"CLOUGHDUV N S, Cloughduv, Crookstown","Cloughduv House, Coolmucky, Crookstown, Co. Cork, Ireland",51.8463885,-8.7887842
523,"CASTLEROCK N S, Drummartin, Aclare","Drummartin, Co. Sligo, Ireland",54.0619725,-8.859174699999999
524,"MONEYSTOWN N S, Moneystown, Roundwood Bray","Moneystown, Parkmore, Bray, Co. Wicklow, Ireland",53.0035937,-6.1991311
525,"CLOVER HILL N S, Lisagallan, Cloverhill","Cloverhill National School, Cloverhill, Co. Roscommon, Ireland",53.6529485,-8.2519894
526,"FAIRGREEN N S, Railway Road, Belturbet","Railway Rd, Corporation Lands, Belturbet, Co. Cavan, Ireland",54.0989352,-7.4433239
527,"TIRELTON N S MXD, Tarelton, Macroom","na, Tirelton, Macroom, Co. Cork, P12 HR24, Ireland",51.8372603,-8.9904989
528,"GLANBRIAN N S, Gallinastraw, Glenbrien","Glenbrien National School, Ballynastraw, Ballinastraw, Co. Wexford, Ireland",52.4647155,-6.5003913
529,"ST PATRICKS NS, Clare Island, Westport","Kille, Clare Island, Kill, Westport, Co. Mayo, F28 F516, Ireland",53.793183,-9.9898446
530,"St. John's National School,, Ballinalee Road, Edgeworthstown","Edgeworthstown, Co. Longford, Ireland",53.6956862,-7.608492999999999
531,"FERMOYLE MIXED N S, Fermoyle, Lanesboro","Fermoyle National School, Formoyle (Newcomen), Lanesborough, Co. Longford, Ireland",53.6246602,-7.9933557
532,"ST PATRICKS N S, Morristown, Newbridge","Morristown Rd, Moorfield, Newbridge, Co. Kildare, Ireland",53.1779536,-6.8140395
533,"COURT N S, Court, Gorey","Court, Gorey, Co. Wexford, Ireland",52.55334999999999,-6.3417672
534,"SCOIL BHRIDE, Stillbrook, Mountrath","Stillbrook, Mountrath, Co. Laois, Ireland",53.0002948,-7.476303199999999
535,"SCOIL BRIDE, Athgarvan, The Curragh","Curragh Cl, Blackrath, Newbridge, Co. Kildare, Ireland",53.1492284,-6.7983558
536,"SCOIL MHUIRE, Castle Road, Oranmore","Scoil Mhuire, Castle Rd, Oran More, Oranmore, Co. Galway, Ireland",53.2673363,-8.9318252
537,"SCOIL BHRIDE, Crossmahon, Bandon","Knocknagarrane, Cross Mahon, Co. Cork, Ireland",51.7270742,-8.769932899999999
538,"S N PADRAIG NFA FANOIR, Fanore, Ballyvaughan","Fanore Beg, Fanore, Co. Clare, Ireland",53.10493,-9.295539999999999
539,"S N AN TSRAITH, Bunnahowen, Ballina","Carrowkeel, Bunnahowen, Co. Mayo, Ireland",54.1919099,-9.9054109
540,"SN AN TRIAN LAIR, Midfield, Swinford","Treanlaur, Midfield, Co. Mayo, Ireland",53.897116,-8.927196
541,"KNOCKRAHA N S, Knockraha, Co. Cork","Gogganstown, Knockraha, Co. Cork, Ireland",51.9582892,-8.3396802
542,"Scoil Mhuire Gan Smál, New Inn, Co. Tipperary","Loughkent East, Newinn, Co. Tipperary, Ireland",52.4409429,-7.8837206
543,"SN TUAIRINI, Tuairíní, Maigh Cuilinn","Tooreeny National School, Tooreeny, Moycullen, Co. Galway, Ireland",53.3068537,-9.1530849
544,"BALLYEA MIXED N S, Ballyea, Darragh","Ballyea, Tiermaclane, Co. Clare, Ireland",52.7839167,-9.0296878
545,"S N BEAL ATHA NA HEIN, Ballyhean, Castlebar","Castlebar, Co. Mayo, Ireland",53.8550014,-9.287925699999999
546,"SCOIL MHUIRE, Lucan Road, Lucan","Lucan Rd, St. Edmondsbury, Lucan, Co. Dublin, K78 DK18, Ireland",53.3590634,-6.4398652
547,"Bunscoil Rinn an Chabhlaigh, Rushbrooke, Cobh","Norwood Grove, Rushbrooke, Cobh, Co. Cork, Ireland",51.84993739999999,-8.3146027
548,"S N GALLBHAILE, Galbally, Co. Tipperary","Galbally, Co. Limerick, Ireland",52.4012269,-8.296125199999999
549,"S N ATH NA LIONTA, Mourneabbey, Mallow","Mallow, Garrynagearagh, Mallow, Co. Cork, Ireland",52.0688714,-8.6379625
550,"CLOONFOUR N S, Cloonfour, Rooskey","Roosky, Co. Roscommon, Ireland",53.8327737,-7.921534899999998
551,"MOUNT PLEASANT N S, Ballyglass, Claremorris","Slishmeen, Co. Mayo, F12 YX45, Ireland",53.7461052,-9.1771175
552,"S N MUIRE LOURDES, Mill Street, Tullow","Mill St, Templeowen, Tullow, Co. Carlow, Ireland",52.8008302,-6.734406099999999
553,"SCOIL MHUIRE LOURDES, Ballea Road, Carrigaline","Ballea Rd, Carrigaline West, Carrigaline, Co. Cork, Ireland",51.819619,-8.397268
554,"SCOIL MHUIRE, Moyderwell, Tralee","Moyderwell, Cloon Beg, Tralee, Co. Kerry, Ireland",52.2681291,-9.6997039
555,"MURHUR N S, Listowel Road, Moyvane","Church of the Assumption, Listowel Rd, Cloonbrane, Newtown Sandes, Co. Kerry, Ireland",52.5007826,-9.3720564
556,"DERRINACAHARA N S, Derrinacahara, Dunmanway","Derrinacahara, Dunmanway, Co. Cork, Ireland",51.7529551,-9.1765797
557,"S N FAITCHE, Toorgarve, Fahy","Fahy, Co. Mayo, Ireland",53.8501218,-9.4920782
558,"S N CHILL COINNIGH, Kilkenny, Glenties","Kilkenny, Ireland",52.6541454,-7.2447879
559,"DRUMRANEY MIXED N S, Drumraney, Athlone","Newgrove, Co. Westmeath, Ireland",53.4765767,-7.748619199999999
560,"ST ANDREWS N S, Newcourt Road, Bray","Newcourt Rd, Newcourt, Bray, Co. Wicklow, Ireland",53.1896749,-6.101335499999999
561,"ST COLUMBAS N S, Dublin Road, Tullow",.,.,.
562,"PRESENTATION PRIMARY SCHOOL, Warrenmount, Blackpitts","25-26 Blackpitts, Merchants Quay, Dublin, D08 XR62, Ireland",53.3357624,-6.275410099999999
563,"PRESENTATION PRIMARY SCHOOL, Terenure Road West, Dublin 6W","Terenure Rd W, Terenure, Dublin 6W, Co. Dublin, Ireland",53.3103186,-6.287660199999999
564,"SCOIL EOIN, Balloonagh, Tralee","Balloonagh, Tralee, Co. Kerry, Ireland",52.2723865,-9.710142200000002
565,"S N MUIRE, Letterfrack, Co. Galway","Letterfrack, Co. Galway, Ireland",53.55360340000001,-9.9482317
566,"KILNAMONA N S, Kilnamona, Ennis","Mweelagarraun, Kilnamona, Co. Clare, V95 XY88, Ireland",52.867855,-9.0785584
567,"ANNALITTEN N S, Annalitten, Castleblayeny","Monygorbet, Co. Monaghan, Ireland",54.0830401,-6.7032967
568,"BALLYDUFF N S, Ballyduff West, Kilmeaden","Ballyduff National School, Ballyduff West, Co. Waterford, Ireland",52.2324403,-7.268985199999999
569,"EMO MIXED N S, Emo, Portlaoise","Emo, Portlaoise, Co. Laois, Ireland",53.1004132,-7.208737099999999
570,"CASTLEMARTYR N S, Gortnahomnamore, Castlemartyr","National School, Gortnahomna More, Castlemartyr, Co. Cork, P25 FK64, Ireland",51.91129,-8.0516519
571,"ST LUKES MXD N S, O' Mahony's Avenue, Cork","Ardview House, 2 Mahony's Ave, Montenotte, Cork, Co. Cork, T23 A0W7, Ireland",51.90391899999999,-8.4562779
572,"ANNADUFF MXD N S, Antfield, Aughamore","Saint Ann's Church of Ireland, Annaduff, Carrick On Shannon, Co. Leitrim, Ireland",53.9025064,-7.9545566
573,"BEACAN MIXED N S, Bekan, Claremorris","Bekan National School, Bekan, Claremorris, Co. Mayo, Ireland",53.7586015,-8.8497217
574,"DUNMANWAY CONVENT GIRLS SENIOR NATIONAL SCHOOL, Dunmanway, Co. Cork","Dunmanway North, Co. Cork, Ireland",51.7237792,-9.114336699999999
575,"DUNMANWAY CONVENT INF, Dunmanway, Co. Cork","Sackville St, Brookpark, Dunmanway, Co. Cork, Ireland",51.72202960000001,-9.107468899999999
576,"LOWER GLANMIRE N S, New Inn, Glanmire","New Inn, Glanmire, Co. Cork, Ireland",51.9199733,-8.412823699999999
577,"S N AN CILLIN, Ballyshrule, Portumna","Fairyhill, Portumna, Co. Galway, Ireland",53.0927811,-8.218540599999999
578,"SN MUINE CHONALLAIN, Bonniconlon, Ballina","Ballina, Co. Mayo, Ireland",54.1149482,-9.1550693
579,"DULARGY MIXED N S, Dulargy, Ravensdale","Dulargy, Ravensdale, Broughattin, Dundalk, Co. Louth, Ireland",54.0427072,-6.331172
580,"KILLURNEY N S, Killurney, Clonmel","Ballypatrick, Cooloran, Clonmel, Co. Tipperary, Ireland",52.3963302,-7.605790400000001
581,"DELGANY N S, Delgany, Co. Wicklow","5 R762, Delgany, Co. Wicklow, Ireland",53.1324869,-6.085489400000001
582,"SCOIL CHROÍ RÓ NAOFA BEANNCHOR IORRAIS, Srahanarry, Bangor Erris","Srahanarry, Co. Mayo, Ireland",54.1460424,-9.732163199999999
583,"S N NAOMH IOSEF, Nymphsfield, Cong","Nymphsfield, The Derries, Co. Mayo, Ireland",53.5466127,-9.2796475
584,"ST VINCENTS CONVENT N S, Wolfe Tone Street, Cork","St Mary's Rd, Blackpool, Cork, Ireland",51.9056338,-8.4768445
585,"S N COLMCILLE, Leitir Móir, Co. na Gaillimhe","Inishlay, Lettermore, Co. Galway, Ireland",53.2887484,-9.655943700000002
586,"CASTLETOWNSEND MXD N S, Gurranes, Castletownshend","Gurranes, Castletownshend, Co. Cork, P81 VY73, Ireland",51.530754,-9.196615999999999
587,"CLOHANES N S, Mullagh, Ennis","Cloonmore, Clohanes, Co. Clare, Ireland",52.76484,-9.471670099999999
588,"BURRANE N S, Burrane Upper, Killimer","Burrane Upper, Oaklands, Co. Clare, Ireland",52.6286843,-9.3618093
589,"RATH MIXED N S, Rath, Ballybrittas","Rathronshin, Ballybrittas, Co. Laois, Ireland",53.094432,-7.0923216
590,"RIVERSTOWN N S, Riverstown, Glanmire","St Josephs View, Riverstown, Glanmire, Co. Cork, Ireland",51.9305033,-8.392882499999999
591,"NAOMH PADRAIG N S, Muckerstaff, Coolarty","Muckerstaff National School, Killeen, Coolarty, Co. Longford, Ireland",53.7596139,-7.5565152
592,"GARTAN N S, Gartan, Letterkenny","Enterprise Fund Business Centre, Letterkenny, Co. Donegal, Ireland",54.96103400000001,-7.711907999999999
593,"TARMON N S, Tarmon, Castlerea","Castlerea, Ballinphuill, Castlerea, Co. Roscommon, Ireland",53.77083020000001,-8.4385414
594,"TEMPLEMARY N S, Carbad Beg, Killala","Templemary, stop 597351, Carbad Beg, Co. Mayo, Ireland",54.23371359999999,-9.2579278
595,"S N GORT AN EADAIN, Facefield, Claremorris","Clare, Claremorris, Co. Mayo, Ireland",53.72387639999999,-9.0017356
596,"ST PATRICKS N S, St Loman's Street, Trim","St Loman's St, Trim, Co. Meath, Ireland",53.5589635,-6.791384099999999
597,"S N DHROM ATHAIN, Dromahane, Mallow","Dromore, Dromahane, Co. Cork, Ireland",52.1056038,-8.6908349
598,"BREAFFY N S, Breaffy, Castlebar","Castlebar, Breaghwy, Castlebar, Co. Mayo, Ireland",53.8478372,-9.2380903
599,"BULGADEN N S, Bulgaden, Kilmallock","Bulgaden Eady, Bulgaden, Co. Limerick, V35 F589, Ireland",52.4226179,-8.5268126
600,"LECANVEY N S, Lecanvey, Westport","Westport, Co. Mayo, Ireland",53.80213070000001,-9.514346699999999
601,"S N NA CRANNAIGHE, Carrowreagh East, Cranny","Carrowreagh East, Cranny, Co. Clare, Ireland",52.6924765,-9.2254726
602,"CORCREAGH N S, Corcreagh, Shercock","Corcreagh School, Raferagh, Shercock, Co. Monaghan, Ireland",53.9913705,-6.858146899999999
603,"HOWTH RD MXD N S, Clontarf Road, Clontarf","Clontarf Rd, Clontarf, Dublin 3, D03 E166, Ireland",53.3639404,-6.2244934
604,"PRIMROSE HILL NS, Hazelhatch Road, Celbridge","Hazelhatch Rd, Donaghcumper, Celbridge, Co. Kildare, Ireland",53.3367795,-6.5369796
605,"S N NA NAOMH UILE, Knockbrack, Cleggan","Cleggan, Moorneen, Cleggan, Co. Galway, Ireland",53.556598,-10.1121917
606,"KILMIHIL N.S., Kilmihil, Co. Clare","Kilmihil National School, Church St, Kilmihil, Co. Clare, Ireland",52.7227439,-9.3191265
607,"DOUGLAS B N S, Douglas West, Cork","Douglas W, Douglas, Cork, Co. Cork, Ireland",51.87346710000001,-8.4417413
608,"MOYLOUGH N S, Moylough, Tubbercurry","Moylough National School, Moylough, Tobercurry, Co. Sligo, Ireland",54.0273351,-8.7046969
609,"CARRICK N S, Carrick, Curraghboy","Curraghboy, Athlone, Co. Westmeath, Ireland",53.4826978,-8.107217799999999
610,"HOLLYFORD N S, Curraheen, Hollyford","Clonmurragha, Hollyford Village, Co. Tipperary, Ireland",52.63253,-8.1114699
611,"BUSHY PARK N S, Circular Road, Bushy Park","Circular Rd, Bushypark, Galway, H91 AF57, Ireland",53.2902201,-9.082876299999999
612,"ROSCREA N S NO 2, Rosemount, Roscrea","Rosemount, Demesne, Roscrea, Co. Tipperary, Ireland",52.95479779999999,-7.795852300000001
613,"KILKISHEN N S, Kilkishen, Ennis","Kilkishen, Clonlea, Ennis, Co. Clare, Ireland",52.8049347,-8.7427017
614,"ROBERTSON N S, Lisminton, Ballintra","Glebe, Stranorlar, Co. Donegal, Ireland",54.80576809999999,-7.762967299999999
615,"MOVEEN N S, Kilkee, Co. Clare","Moveen National School, Moveen West, Kilkee, Co. Clare, Ireland",52.6434201,-9.6842176
616,"SLATTA N S, Moher, Kilglass","Cliffs of Moher, Lislorkan North, Co. Clare, Ireland",52.9715368,-9.4308824
617,"S N GLEANN NA MUAIDHE, Béal an Átha, Co. Mhaigh Eo","Pollboy, Glenamoy, Co. Mayo, Ireland",54.2409359,-9.676034099999999
618,"SHANBALLY N S, Shanbally, Ringaskiddy","Shanbally, Ringaskiddy, Co. Cork, Ireland",51.8309928,-8.3533741
619,"HEWETSONS N S, Millicent, Clane","Millicent Rd, Millicent North, Clane, Co. Kildare, W91 CA34, Ireland",53.2796731,-6.6932432
620,"BALLAGHAMEEHAN N S, Conray, Rossinver","R282, Conray, Co. Leitrim, Ireland",54.3818249,-8.109340699999999
621,"S N BUN AN TSABHAIRNE, Crosshaven, Co. Cork","Crosshaven, Co. Cork, P43 X242, Ireland",51.8023015,-8.2984303
622,"SCOIL NAOMH IOSEF, Ráthún, Bearna","Barna, Co. Galway, Ireland",53.251812,-9.1474685
623,"INISHBOFIN N S, Middlequarter, Inishbofin","Middlequarter, Inishbofin, Co. Galway, Ireland",53.6225349,-10.2192531
624,"ENNISCRONE N S, Enniscrone, Co. Sligo","Main Street, Carrowhubbuck South, Enniscrone, Co. Sligo, F26 Y3Y9, Ireland",54.2127105,-9.093793
625,"S N CILL MUIRE, Kilmurry, Sixmilebridge","Ieverstown, Sixmilebridge, Co. Clare, Ireland",52.7436246,-8.777650399999999
626,"S N BHRIDE, Leitir Caladh, Lettermore","Inishlay, Lettermore, Co. Galway, Ireland",53.2887484,-9.655943700000002
627,"ST MATTHIAS N S, Church Road, Ballydehob","1 Church Rd, Ballydehob, Co. Cork, P81 H735, Ireland",51.5635755,-9.467416
628,"S N NAOMH PADRAIG, Ballyfarnon, Boyle","Saint Patrick's National School, Alderford, Boyle, Co. Roscommon, Ireland",54.0680868,-8.1995193
629,"S N B TOGHER CORK, Togher Road, Cork","Togher Rd, Lehenagh Beg, Cork, T12 Y710, Ireland",51.8742279,-8.496312
630,"BIRDHILL N S, Birdhill, Killaloe","Gortybrigane, Birdhill, Co. Tipperary, Ireland",52.76749969999999,-8.4371207
631,"KILNAMANAGH Community National School, Knockskimolin, Outlart",.,.,.
632,"SCOIL NAOMH MHUIRE, Bishop Street, Cork","Bishop St, The Lough, Cork, Ireland",51.8949983,-8.4802333
633,"KNOCKACLARIG MXD N S, Knockaclarig, Brosna","Knockaclarig National School, Knockaclarig, Rockchapel, Co. Cork, Ireland",52.2757707,-9.2175235
634,"KILTEELY N S, Kilteely, Co. Limerick","Kilteely, Kilteely National School, Co. Limerick, Ireland",52.52134,-8.39866
635,"S N BHRIDE, Donaskeagh, Co. Tipperary","Donaskeagh, Co. Tipperary, Ireland",52.5220639,-8.0720785
636,"S N BAILE DEASMUMHAN, Church Road, Ballydesmond","Ballydesmond, Ballyhest East, Mallow, Co. Cork, Ireland",52.2008476,-8.8105421
637,"COACHFORD N S, Coachford, Co. Cork","Coachford National School, Glebe, Coachford, Co. Cork, Ireland",51.91035,-8.7927742
638,"CARNAIN N.S., Carnaun, Athenry","Carnaun, Athenry, Co. Galway, Ireland",53.3314719,-8.788968299999999
639,"CARYSFORT MXD N S, Knockanrahan, Arklow","Yellow Ln, Knockanrahan Lower, Arklow, Co. Wicklow, Ireland",52.7902449,-6.164252299999999
640,"WHITEHALL N S, Whitehall, Tarmonbarry","Ballygate, Whitehall, Co. Roscommon, Ireland",53.76247100000001,-7.920863
641,"STOKANE NS, Stokane, Enniscrone","Muingwore, Stokane, Co. Sligo, Ireland",54.1777167,-9.0271201
642,"KANTURK B N S, Kanturk, Co. Cork","Kanturk, Co. Cork, Ireland",52.17725489999999,-8.9051669
643,"MOUNT TALBOT N S, Mount Talbot, Co. Roscommon","Mount Talbot National School, Mount Talbot, Co. Roscommon, Ireland",53.5302548,-8.2821942
644,"S N COILL AN BHAILE, Killawalla East, Westport","Killavally West, Killavally, Co. Mayo, Ireland",53.7590297,-9.3669277
645,"FEDAMORE N S, Ballyea, Fedamore","Fedamore, Castlequarter, Kilmallock, Co. Limerick, Ireland",52.5454956,-8.6051311
646,"DUN DEALGAN N S, Jocelyn Street, Dundalk","Jocelyn St, Jocelyn Dr, Townparks, Dundalk, Co. Louth, Ireland",54.00412439999999,-6.395264
647,"DRUMGOSSETT N S, Drumgossett, Carrickmacross","Drumgossatt National School, Drumgoosat, Carrickmacross, Co. Monaghan, Ireland",53.9518772,-6.7774505
648,"CASTLETARA N S, Castletara, Ballyhaise","Castletara, Lisdunvis Glebe, Ballyhaise, Co. Cavan, Ireland",54.03044939999999,-7.2917171
649,"S N MOLUA B, Cross, Ardagh","Minister's-Land, Ardagh, Co. Limerick, Ireland",52.4951415,-9.058318200000002
650,"CASTLETOWNROCHE N S, Close Road, Castletownroche","Close Rd, Castlewidenham, Co. Cork, Ireland",52.1719763,-8.468511399999999
651,"CROSS N S, Kilrush, Co. Clare","Cross National School, Cross, Co. Clare, Ireland",52.5989632,-9.7753535
652,"KILBRITTAIN MIXED N S, Kilbrittain, Co. Cork","Kilbrittain National School, Glanduff, Kilbrittain, Co. Cork, Ireland",51.6731214,-8.694636299999999
653,"S N LIOS MOR MOCHUDA, North Mall, Lismore","N Mall, Lismore, Lios Mór, Co. Port Láirge, Ireland",52.1393512,-7.929751700000001
654,"HOLMPATRICK N S, Convent Lane, Skerries","Holmpatrick, Skerries, Co. Dublin, Ireland",53.5796951,-6.1075289
655,"POULACAPPLE N S, Mullinahone, via Callan","Poulacapple East, Poulacapple, Co. Tipperary, Ireland",52.5002568,-7.4359953
656,"BARNATRA N S, Barnatra, Ballina","Barnatra, Rinnashinnagh, Ballina, Co. Mayo, Ireland",54.222187,-9.8506813
657,"S N Dhumha Thuama, Dumha Thuama, Béal an Átha","Tullaghanbaun, Doohooma, Co. Mayo, Ireland",54.0736741,-9.9311755
658,"SCOIL CHOLMCILLE, An Tearmann, Co. Dhún na nGall","Scoil Cholmcille, Currin, Termon, Co. Donegal, Ireland",55.049512,-7.832256999999999
659,"S N MAINISTIR MUIGHEO, Lehanagh, Mayo Abbey","Lehanagh, Cnoc Na Niúr, Co. Mayo, Ireland",53.7775617,-9.1252149
660,"SN CHILL SARAIN, Kilsaran, Castlebellingham","Kilsaran, Milestown, Castlebellingham, Co. Louth, Ireland",53.88632339999999,-6.38817
661,"S N LATHRACH 2, Muff, Kingscourt","Laragh Church, Laragh, Kingscourt, Co. Cavan, Ireland",53.9025687,-6.8620699
662,"SCOIL BHRIDE, Greenmount Road, Ballydehob","Scoil Bhride, Ballydehob, Co. Cork, Ireland",51.5604538,-9.459566500000001
663,"KILCOE NS, Kilcoe, Skibbereen","Church Cross, Murrahin South, Skibbereen, Co. Cork, Ireland",51.5597449,-9.3903764
664,"NICKER N S, Nicker, Pallasgreen","Nicker, Pallasgreen, Co. Limerick, Ireland",52.5610125,-8.3456678
665,"CALLYSTOWN MIXED N S, Callystown, Clogherhead","Callystown, Clogherhead, Co. Louth, Ireland",53.7916269,-6.2435066
666,"S N MHUIRE, Danescastle, Carrig-on-Bannow","Danescastle, Co. Wexford, Ireland",52.2385344,-6.7321656
667,"CILL MHOR IORRAIS, Binghamstown, Belmullet","Binghamstown, Co. Mayo, Ireland",54.2063795,-10.0354122
668,"ABBEYLEIX STH N S, Ballacolla Road, Abbeyleix","Ballacolla Rd, Knocknamoe, Abbeyleix, Co. Laois, Ireland",52.910751,-7.354767
669,"JONATHAN SWIFT NS, Dunlavin, Co. Wicklow","Dunlavin Upper, Dunlavin, Co. Wicklow, Ireland",53.0578764,-6.7016395
670,"S N PADRAIG NAOFA, Lisheen, Williamstown",.,.,.
671,"SCOIL NAOMH PADRAIG, Knockroon, Headford","Headford, Co. Galway, Ireland",53.4694617,-9.106133999999999
672,"SCOIL NAOMH BRID, Ballycastle, Co. Mayo","Ballycastle, Co. Mayo, Ireland",54.2788385,-9.3717337
673,"BRIERFIELD N SCHOOL, Brierfield, Tuam","Brierfield, Tuam, Co. Galway, Ireland",53.4659021,-8.6636188
674,"KILLASONNA MIXED N S, Killasonna, Granard","Granard, Co. Longford, Ireland",53.74682139999999,-7.4771401
675,"S N CLEIRE, Oileán Chléire, An Sciobairín","Oileán Chléire, Keenleen, Co. Cork, P81 FY05, Ireland",51.4353813,-9.4983063
676,"BALLYLANDERS N S, Main Street, Ballylanders","Ballylanders, Kilmallock, Co. Limerick, V35 R9X8, Ireland",52.3708888,-8.3464216
677,"CORLEA N S, Corlea, Kingscourt","Corlea, Co. Cavan, Ireland",53.939755,-6.8641595
678,"SEARCOG I N S, Kingscourt Road, Shercock","Kingscourt Rd, Co. Cavan, Ireland",53.990857,-6.8899206
679,"AUGHAVAS NS, Aughavas, Carrigallen","Aghavas, Co. Leitrim, Ireland",53.95553959999999,-7.7177963
680,"CARRICKLECK N S, Carrickleck, Kingscourt","Carrickleck, Co. Meath, Ireland",53.8702298,-6.764870699999999
681,"LISANISKEY N S, Ballymacfarrane, Donamon","Lissanisky, Co. Roscommon, Ireland",53.6587921,-8.339077999999999
682,"LOUGHFOUDER N S, Knocknagoshel, Tralee","Lackbrooder, Loughfouder, Co. Kerry, Ireland",52.28943,-9.3589001
683,"S N CILL CONAILL, Corraneena, Kilconnell","Abbeyfield, Kilconnell, Co. Galway, Ireland",53.3314659,-8.401432699999999
684,"S N PADRAIG NAOFA, Ballaghlea, Ballygar","Ballaghlea, stop 550171, Cloonascarberry (Cheevers), Co. Galway, Ireland",53.5122875,-8.386730499999999
685,"STONEPARK N S, Stonepark, Co. Longford","Stonepark, Co. Longford, Ireland",53.69429539999999,-7.8200749
686,"S N CILL FHEICIN, Rakerin, Gort",.,.,.
687,"GLEBE NS, Church Hill, Wicklow Town","Church Hill, Corporation Land (1st Division), Wicklow, Ireland",52.983138,-6.0465791
688,"KILLYGARRY N S, Killygarry, Co. Cavan","Kilgarry, Edenticlare, Kilgarry, Co. Cavan, Ireland",53.9864853,-7.3051518
689,"SCOIL NEASSAIN, Mungret, Co. Limerick","Baunacloka, Mungret, Co. Limerick, Ireland",52.6309647,-8.6683006
690,"S N NAOMH PADRAIG, Gorteennaglogh, Renvyle","Renvyle, Tully, Co. Galway, Ireland",53.5951968,-9.957941
691,"S N ARD, Aird Thiar, Carna",.,.,.
692,"KNOCKAVILLA N S, Killenure, Dundrum","Killenure, Dundrum, Co. Tipperary, E34 TY07, Ireland",52.5446132,-8.003851
693,"DERRYCREHA N S, Derrycreha, Glengarriff","Glengarriff Rd, Town Lots, Bantry, Co. Cork, Ireland",51.6819171,-9.447778
694,"ABBEYSTREWRY N S, Castletownsend Road, Skibbereen","Castletownsend Rd, Carrigfadda, Skibbereen, Co. Cork, Ireland",51.5409415,-9.261122
695,"CLOUGHANOWER N S, Cloughanover, Headford","Headford, Cloghanower, Headford, Co. Galway, Ireland",53.4455916,-9.0951459
696,"ST FEIGHANS MXD N S, Fore, Castlepollard","Collinstown, Fore Abbey, Co. Westmeath, Ireland",53.64722,-7.208201
697,"KILLEA N S, Killea, Templemore","Killea, Templemore, Co. Tipperary, Ireland",52.8236279,-7.876884199999999
698,"ST COLUMBAS N S MXD, North Strand, Dublin 3","Waterloo Ave, North Strand, Dublin, D03 NH34, Ireland",53.3587102,-6.2423326
699,"KILMALEY N S, Kilmaley, Ennis","Kilmaley National School, Knockmoy, Ennis, Co. Clare, Ireland",52.8203269,-9.1099755
700,"WANDESFORDE MIXED N S, Castlecomer, Co. Kilkenny","Castlecomer, Co. Kilkenny, Ireland",52.8057271,-7.2060448
701,"CURRACLOE N S, Curracloe, Enniscorthy","Barnahask, Curracloe, Co. Wexford, Ireland",52.39302379999999,-6.3921661
702,"S N B CURNANOOL, Cornanool, Castlebar","Unnamed Road, Cornanool, Castlebar, Co. Mayo, Ireland",53.8525207,-9.357234000000002
703,"SCOIL MHUIRE B&C, Na Doirí Beaga, Leitir Ceanainn",.,.,.
704,"GORTJORDAN N S, Kilmaine, Claremorris","Kilmaine, Claremorris, Co. Mayo, Ireland",53.5493175,-9.1538355
705,"ST ENDAS PRIMARY SCHOOL, Whitefriar Street, Dublin 8","Whitefriar Pl, Saint Peter's, Dublin 8, Ireland",53.3403906,-6.2665964
706,"KILLEA BOYS N S, Dunmore East, Co. Waterford","Killea, Dunmore East, Co. Waterford, Ireland",52.1653965,-7.0055551
707,"TOMGRANEY N S, Tuamgraney, Co. Clare","Ballyquin, Tuamgraney, Co. Clare, Ireland",52.8985172,-8.541013
708,"SCOIL NAOMH FAINCHE, School Lane, Collon",.,.,.
709,"CARYSFORT NS, Convent Road, Blackrock","Convent Rd, Blackrock, Co. Dublin, Ireland",53.297112,-6.183017
710,"AINBHTHIN NAOFA, Rosscahill East, Rosscahill","Rosscahill, Rosscahill East, Rosscahill, Co. Galway, Ireland",53.390619,-9.249396599999999
711,"EIDHNEACH N S, Carrowkeel, Inagh","Carrowkeel East, Inagh, Co. Clare, Ireland",52.8769834,-9.176764499999999
712,"DOON CONVENT N S, Doon, Co. Limerick","Lisgaugh, Doon, Co. Limerick, Ireland",52.6043292,-8.247839299999999
713,"SCOIL CHOLMCHILLE, Ballymena, Glengad","Glengad, Co. Donegal, Ireland",55.3306786,-7.2114791
714,"CARRAROE N S, Tonafortes, Carraroe","Tullynagracken South, Co. Sligo, Ireland",54.2447445,-8.474907199999999
715,"S N MHUIRE, Fiddaun, Ardrahan","Fiddaun, Co. Galway, Ireland",53.1692451,-8.751241499999999
716,"S N NA CLOICHE MOIRE, Ballyraggan, Rathvilly","Ballyraggan, Rathvilly, Co. Carlow, Ireland",52.8969211,-6.768779899999999
717,"DALKEY N S (2), Harbour Road, Dalkey","2 Harbour Rd, Glenageary, Dalkey, Co. Dublin, A96 V304, Ireland",53.2834255,-6.104596799999999
718,"CLOONTAGH MIXED N S, Cloontagh, Killashee","R398, Cloontamore, Co. Longford, N39 RF60, Ireland",53.6368604,-7.894288999999999
719,"CASTLETOWN RD CONVENT, Castletown Road, Dundalk","Castletown Rd, Moorland, Dundalk, Co. Louth, Ireland",54.01420230000001,-6.4178772
720,"BALLAGHKEENE N S, Ballaghkeane, Enniscorthy","Ballaghkeen, Enniscorthy, Co. Wexford, Ireland",52.4813346,-6.428579
721,"COLEHILL MIXED N S, Colehill, Co. Longford","Streamstown, Colehill, Co. Longford, Ireland",53.5980557,-7.6796154
722,"S N BAILE BUILEARAIGH, Butlerstown, Co. Waterford","Butlerstown, Hillcrest Grove, Co. Waterford, Ireland",52.2295939,-7.1781459
723,"AUGHRIM N S, Hillstreet, Carrick-on-Shannon","Aughrim National School, Aughrim, Carrick-On-Shannon, Co. Roscommon, Ireland",53.871787,-8.1224211
724,"MURROE NATIONAL SCHOOL, Murroe, Dunfanaghy","Murroe National School, Magheramenagh, Murroe Upper, Co. Donegal, Ireland",55.1536474,-8.011524
725,"SN AN FHAIRCHE, An Fháirche, via Clár Chlainne Mhuiris","Cloonbur, Clonbur, Co. Galway, Ireland",53.5451643,-9.3643582
726,"RATHGAR N S, Rathgar Avenue, Dublin 6","Rathgar Ave, Rathfarnham, Dublin 6, Ireland",53.3140809,-6.275431999999999
727,"SCOIL RONAIN, Oileán Trá Bhán, Leitir Móir","Scoil Ronain, Killeany, Inishmore, Co. Galway, Ireland",53.1230091,-9.6681197
728,"KINSALE N S, Knocknabohilly, Kinsale","Knocknabohilly, Cork, P17 AF10, Ireland",51.7099803,-8.5144732
729,"SCOIL BHRIDE, Mountnugent, Co. Cavan","Mountnugent, Co. Cavan, Ireland",53.81855110000001,-7.253288700000001
730,"AGHACASLA N S, Aughacasla, Camp","Aughacasla South, Aughacasla, Co. Kerry, Ireland",52.2366,-9.978919999999999
731,"KILMYSHALL N S, Kilmyshall, Bunclody","Kilmyshall, Bunclody, Co. Wexford, Ireland",52.6273204,-6.6559469
732,"DUNMANWAY BOYS SENIOR NATIONAL SCHOOL, Dunmanway, Co. Cork","Sackville St, Brookpark, Dunmanway, Co. Cork, Ireland",51.72202960000001,-9.107468899999999
733,"CAPPAWHITE N S, Cappagh, Cappawhite","Cappagh, Cappagh White, Co. Tipperary, Ireland",52.5822151,-8.164659000000002
734,"IRISHTOWN N S, Claremorris, Co. Mayo","Irishtown National School, Ballinvilla, Irishtown, Co. Mayo, Ireland",53.6625737,-8.8902577
735,"ROSCARBERY CON N S, Ardagh East, Rosscarbery","Townlands, Rosscarbery, Co. Cork, Ireland",51.5803726,-9.0296174
736,"SCOIL LACHTAIN NAOFA, Cill na Martra, Maigh Chromtha","Caherkereen, Kilnamartyra, Co. Cork, Ireland",51.90026,-9.08222
737,"Scoil San Eoin, Redcross, Co. Wicklow","Ballygillaroe, Redcross, Co. Wicklow, Ireland",52.88974400000001,-6.1452741
738,"BAREFIELD MIXED N S, Barefield, Ennis","Barefield, Ennis, Co. Clare, Ireland",52.890303,-8.944163999999999
739,"S N PEADAR AGUS POL, Ballon, Co. Carlow","Ballon, Co. Carlow, Ireland",52.7391042,-6.769783899999999
740,"MARYBORO N S, Summerhill, The Downs","Stradbally Rd, Moneyballytyrrell, Portlaoise, Co. Laois, Ireland",53.0345008,-7.2927694
741,"CLONDROHID N S, Clondrohid, Macroom","Clondrohid, Garranenagappul, Macroom, Co. Cork, Ireland",51.92866859999999,-9.021697999999999
742,"ACHILL SOUND CONVENT NS, The Points, Achill Sound","Achill Sound Convent National School, Illanbelfarsad, The Points, Co. Mayo, Ireland",53.9288698,-9.9285862
743,"DOOKINELLA N.S., Low River, Dookinella","Dookinella, Dookinelly (Calvy), Co. Mayo, Ireland",53.9806009,-10.0429704
744,"DRUMEELA N S, Drumeela, Carrigallen PO","Drumeela, Carrigallen, Co. Leitrim, Ireland",54.0160688,-7.659597600000001
745,"GUSSERANE N S, Gusserane, New Ross","Gusserane, Ballygarvan, New Ross, Co. Wexford, Ireland",52.3083331,-6.8597696
746,"ST JOSEPHS N S, Kilmuckridge, Gorey","Kilmuckridge, Co. Wexford, Ireland",52.50878669999999,-6.2884196
747,"ST LEONARDS N S, St. Leonards, Ballycullane","St Leonards, Ballycullane, Co. Wexford, Ireland",52.2803179,-6.8397818
748,"St Mary's National School, Castlefinn, Lifford","16 Ballyduff Park, Lifford, Co. Donegal, F93 AT1X, Ireland",54.83551,-7.4829606
749,"ZION PARISH PRIMARY SCHOOL, Bushy Park Road, Rathgar","1 Bushy Park Rd, Rathfarnham, Rathgar, Co. Dublin, 6, Ireland",53.3078865,-6.274643300000001
750,"S N NAOMH EOIN, Ballinameen, Boyle","Ballinameen, Ballinvilla, Boyle, Co. Roscommon, Ireland",53.9165115,-8.170306199999999
751,"RATHFARNHAM PARISH N S, Washington Lane, Rathfarnham","Washington Grove, Rathfarnham, Dublin 14, Ireland",53.2934227,-6.3034082
752,"RAY N S, Ray, Manorcunningham","Rays National School, Labbadish, Manorcunningham, Co. Donegal, F92 YY86, Ireland",54.9378818,-7.617782099999999
753,"MUIRE GAN SMAL, Old Chapel Lane, Castleisland","Old Chapel Ln, Chapel Quarter, Castleisland, Co. Kerry, V92 P803, Ireland",52.2302163,-9.461053399999999
754,"KILTEEVAN N S, Kilteevan, Co. Roscommon","Aghmagree, Co. Roscommon, F42 YY76, Ireland",53.6355277,-8.1149078
755,"ALL SAINTS NATIONAL SCHOOL, Carnew, Co. Wicklow","All Saints' National School, Main St, Carnew, Co. Wicklow, Ireland",52.70978359999999,-6.4998843
756,"GLASNEVIN N S, Botanic Avenue, Glasnevin","9 Botanic Ave, Botanic, Dublin, Ireland",53.372602,-6.267441
757,"S N AN CHLOCHAN, An Clochán, Co. Chiarraí","Drom West, Cloghane, Co. Kerry, Ireland",52.2304787,-10.1824514
758,"PASSAGE EAST N S, Crooke, Passage East","Crooke, Passage East, Co. Waterford, Ireland",52.2316468,-6.973943299999999
759,"S N RAE NA NDOIRI, Rae na nDoirí, Maigh Chromtha","Reananerree, Macroom, Co. Cork, Ireland",51.9009031,-9.1611976
760,"LYRE A CROMPANE N S, Glashanacree, Lyracrompane","Glashanacree, Co. Kerry, Ireland",52.35109449999999,-9.4850133
761,"SCOIL ASICUS, Golf Course Road, Strandhill","Strandhill, Carrowbunnaun, Sligo, Ireland",54.267065,-8.6018852
762,"SHRONELL N S, Lattin, Co. Tipperary","Shronell More, Co. Tipperary, E34 KH30, Ireland",52.47038930000001,-8.250067
763,"CORCLOUGH NS, Corclogh West, Belmullet","Corclough House, Corclogh, Belmullet, Co. Mayo, Ireland",54.2099572,-9.975534099999999
764,"S N NA HEAGLAISE, Ahascragh, Ballinasloe","Ballinasloe, Co. Galway, Ireland",53.3287621,-8.2269467
765,"ST MARYS N S, Aghamore, Ballyhaunis","Aghamore Community Housing, Cornageaghta, Ballyhaunis, Co. Mayo, Ireland",53.8260502,-8.8203663
766,"S N MUIRE GAN SMAL, Ceathrú Thaidhg, Béal Átha an Fheadha","Carrowteige, Co. Mayo, Ireland",54.3131114,-9.8127032
767,"S N TREASA NAOFA MXD, Castletown, Kilflynn","Castletown, Kilflynn, Co. Kerry, Ireland",52.3505422,-9.625316399999999
768,"MERCY CONVENT PRIMARY SCHOOL, Sallins Road, Naas","Sallins Rd, Naas West, Naas, Co. Kildare, Ireland",53.2212924,-6.663386000000001
769,"ENNIS N S, Ashline, Kilrush Road","11 Kilrush Rd, Cahircalla Beg, Ennis, Co. Clare, Ireland",52.83013200000001,-9.001301
770,"Scoil Na nAingeal Naofa, Carrick Road, Boyle","Carrick Rd, Knocknashee, Co. Roscommon, Ireland",53.9718467,-8.2998576
771,"S N NAOMH PADRAIG, Elphin Street, Strokestown","Elphin St, Co. Roscommon, Ireland",53.7804071,-8.1039865
772,"ST STEPHENS N S, 25 Patrick Street, Waterford","25 Patrick St, Waterford, X91 P03F, Ireland",52.2599331,-7.114425499999999
773,"S N SAN VINSEANN CAILIN, North William Street, Dublin 1","William St N, Dublin, Ireland",53.3572087,-6.2465505
774,"S N CILLINI DIOMA, Killeendeema East, Loughrea","Loughrea, Co. Galway, Ireland",53.1989136,-8.5660931
775,"KNOCKBRIDGE MIXED N S, Knockbridge, Dundalk","Ballinclare, Knockbridge, Co. Louth, Ireland",53.9730132,-6.4854126
776,"SCOIL BHRÍDE, Cannistown, Navan","Stonestown, Cannistown, Co. Meath, Ireland",53.60307,-6.81816
777,"S N SHEAMAIS, Barnacogue, Swinford","Barnacogue, Barnacahoge, Swinford, Co. Mayo, Ireland",53.91821239999999,-8.8670644
778,"ARDVARNEY MXD N S, Cashel, Dromahair","Ardvarney, Co. Leitrim, Ireland",54.2197926,-8.2595437
779,"KILLYCONNAN N S, Stradone, Co. Cavan","Stradone, Corrawillin, Stradone, Co. Cavan, Ireland",53.9631646,-7.2577932
780,"ST BERNARDS MIXED N S, Abbeylara, Co. Longford","Abbeylara, Granard, Co. Longford, Ireland",53.77142389999999,-7.4562322
781,"HAROLD BOYS N S, St. Patrick's Road, Dalkey","St Patrick's Rd, Dalkey, Co. Dublin, Ireland",53.2783949,-6.1036855
782,"BANTRY BOYS SENIOR NATIONAL SCHOOL, Seskin, Bantry","Sheskin, Bantry, Co. Cork, Ireland",51.67737,-9.4401248
783,"BALLINGREE MXD N S, Ballinagree, Macroom,","Macroom, Sleveen East, Macroom, Co. Cork, Ireland",51.9048039,-8.9588478
784,"NAOMH MICHEAL, Donaghmoyne, Carrickmacross","Donaghmoyne, Carrickmacross, Co. Monaghan, Ireland",54.01287019999999,-6.6887836
785,"LISDOONAN N S, Lisdonnan, Carrickmacross","Lisdoonan, Carrickmacross, Co. Monaghan, Ireland",54.02871529999999,-6.752241499999999
786,"NAOMH DOMINIC N S, Kenagh, Co. Longford","Saint Dominic's National School, Aghnacranagh, Keenagh, Co. Longford, Ireland",53.6249201,-7.8187222
787,"MOUNT BRUIS N S, Mount Bruis, Tipperary Town","Bruis, Mount Bruis, Co. Tipperary, Ireland",52.45193,-8.242080000000001
788,"THE ROWER MIXED N S, The Rower, Thomastown","The Rower National School, Raheenduff, The Rower, Co. Kilkenny, Ireland",52.4527879,-6.9616488
789,"BALLINTOTAS N S, Ballintotis, Castlemartyr","Castlemartyr, Ballintotis, Castlemartyr, Co. Cork, Ireland",51.9094013,-8.0957957
790,"CASHELSHANAGHAN N S, Ballymaleel, Letterkenny","Ballymaleel, Letterkenny, Co. Donegal, Ireland",55.00044579999999,-7.6610273
791,"CARRIGDUFF NAT SCHOOL, Carrigduff, Bunclody","Carrigduff, Bunclody, Co. Wexford, Y21 TP49, Ireland",52.656986,-6.665168
792,"NAOMH CAILLIN, Commons, Fenagh","Fiodhnach, Foxfield, Corlough, Carrick-on-shannon, Co. Leitrim, Ireland",54.0266876,-7.860278599999999
793,"Scoil an tStratha Mhóir, Mín an Lábáin, Leitir Ceanainn","Letterkenny, Co. Donegal, Ireland",54.9558392,-7.7342787
794,"ARDKEERIN N S, Ardeeran, Riverstown","Cuiltylough, Fannybrook, Co. Sligo, Ireland",54.1287649,-8.3957994
795,"ANNAGH N S, Annagh, Miltown Malbay","Annagh, Co. Clare, V95 NP38, Ireland",52.82205250000001,-9.41445
796,"CAHERLINE N S, Caherline, Caherconlish","Caherline, Caherconlish, Co. Limerick, Ireland",52.5686741,-8.4538045
797,"ST PATRICKS GIRLS NS, Cambridge Road, Ringsend","3A Cambridge Rd, Dublin, Co. Dublin City, Ireland",53.3433566,-6.2255493
798,"DON N S, Ballaghadereen, Co. Roscommon","Cortoonmore, Cartron More, Ballaghaderreen, Co. Roscommon, Ireland",53.862433,-8.543771099999999
799,"QUIGNAMANGER N S, Creggs Road, Ballina","Creggs Rd, Quignamanger, Ballina, Co. Mayo, Ireland",54.1316662,-9.1302466
800,"S N N MAOLMHAODHAGH C, Anne Stret, Dundalk","Dundalk, Co. Louth, Ireland",53.9979451,-6.405957
801,"S N N MAOLMHAODHAGH N, Anne Street, Dundalk","Anne St, Dundalk, Co. Louth, Ireland",54.0008006,-6.407115
802,"CLOONEY N S, Carrahan, Tulla","Clooney National School, Knockanoura, Carrahan, Tulla, Co. Clare, Ireland",52.8711731,-8.861510299999999
803,"TANEY N S, Sydenham Villas, Dundrum","Sydenham Villas, Dundrum, Dublin 14, Ireland",53.288738,-6.2381874
804,"SC NA GCREAGACHA DUBHA, Sandy Lane, Blackrock","South Carolina, USA",33.836081,-81.1637245
805,"STREAMSTOWN MIXED N S, Streamstown, Co. Westmeath","Streamstown, Mullingar, Co. Westmeath, Ireland",53.6318169,-7.2907143
806,"GAILE N S, Holycross, Thurles","Holycross, Gaile, Thurles, Co. Tipperary, Ireland",52.6031026,-7.8672223
807,"KILDYSART N S, Ennis Road, Kildysart","Ennis Rd, Lackannashinnagh, Kildysart, Co. Clare, Ireland",52.6769373,-9.103895900000001
808,"DALYSTOWN N S, Dalystown, Mullingar","Higginstown, Dalystown, Co. Westmeath, Ireland",53.4351959,-7.385584199999999
809,"ATHLEAGUE N S, Athleague, Co. Roscommon","Athleague, Co. Roscommon, Ireland",53.5680369,-8.2493809
810,"ST GEORGES N S, Naul Road, Balbriggan","Naul Rd, Clogheder, Balbriggan, Co. Dublin, Ireland",53.6072119,-6.2039158
