School,FullAddress,Latitude,Longitude
"ST. LOUIS GIRLS NATIONAL SCHOOL, Park Road, Monaghan","Mullaghmonaghan, Monaghan, H18 HK31, Ireland",54.2456074,-6.9766257
"DERAVOY NATIONAL SCHOOL, Deravoy, Emyvale","Deravoy National School, Derryveagh, Emyvale, Co. Monaghan, Ireland",54.3563977,-7.0243136
"BALLINSPITTLE N S, Ballycatten, Ballinspittle","Ballycatten Terrace, Co. Cork, Ireland",51.6661349,-8.6114229
"MIDLETON CONVENT N S, Midleton, Co. Cork","Ashlin Rd, Castleredmond, Midleton, Co. Cork, P25 R248, Ireland",51.9077343,-8.1646481
"CLOCHAR DAINGEAN, An Phríomhsráid Uachtarach, Daingean Uí Chúis","Dingle, Co. Kerry, Ireland",52.1390931,-10.2710203
"MONARD N S, Monard, Solohead","Monard, Co. Tipperary, Ireland",52.5184427,-8.2234039
"BORRIS MXD N S, Lower Main Street, Borris","Borris, Knocknagundarragh, Borris, Co. Carlow, Ireland",52.5998385,-6.9208848
"ST BRIGIDS MXD N S, Beechpark Lawn, Castleknock","Beechpark Lawn, Castleknock, Dublin 15, Co. Dublin, D15 P820, Ireland",53.3752681,-6.3619871
"LUCAN B N S, Chapel Hill, Lucan","Chapel Hill, St. Edmondsbury, Lucan, Co. Dublin, Ireland",53.359626,-6.4436697
"CLOCHAR LORETO N S, Grange Road, Rathfarnham","Grange Rd, Rathfarnham, Dublin 14, Ireland",53.2913714,-6.2789352
"CENTRAL SENIOR MXD N S, Marlborough Street, Dublin 1","Marlborough St, North City, Dublin, Ireland",53.3513517,-6.2558236
"PRESENTATION GIRLS PRIMARY SCHOOL, Main Street, Maynooth","2 Dunboyne Rd, Maynooth, Co. Kildare, Ireland",53.3835447,-6.587465
"LISDOWNEY N S, Lisdowney, Ballyragget","Lisdowney, Ballyragget, Co. Kilkenny, Ireland",52.7889395,-7.3883646
"SCOIL LACHTAIN, Freshford, Co. Kilkenny","Freshford, Co. Kilkenny, Ireland",52.7307635,-7.3967371
"PRESENTATION CONVENT, Ballymakenny Road, Drogheda","Ballymakenny Rd, Greenbatter, Drogheda, Co. Louth, Ireland",53.7297495,-6.3436372
"SCOIL NAOMH MICHEAL, St. Mel's Road, Longford","St Mel's Rd, Deanscurragh, Longford, Ireland",53.7294138,-7.7964324
"FORGNEY N S, Cloncallow, Ballymahon","Forgney, Collierstown, Co. Longford, Ireland",53.5443953,-7.6988621
"AINE NAOFA N S, Fairgreen, Navan","Fair Green, Dillonsland, Navan, Co. Meath, Ireland",53.6514886,-6.6848538
"RATOATH JUNIOR N S, Fairyhouse Road, Ratoath","Ratoath, Jamestown, Ratoath, Co. Meath, Ireland",53.5031276,-6.4662755
"SHANGANAMORE N S, Shanganamore, Athy","Barrowhouse, Athy, Co. Laois, R14 K695, Ireland",52.9532613,-6.9893985
"BALLINAKILL MIXED N S, Ballinakill, Portlaoise","Church St, Ballinakill, Co. Laois, Ireland",52.8777604,-7.3088444
"PRESENTATION CONVENT (JNR), Harbour Street, Mullingar","Box 8 PO, Harbour St, Commons, Mullingar, Co. Westmeath, Ireland",53.528376,-7.342557
"S N BHRIDE, Emper, Ballynacargy","Emper, Co. Westmeath, Ireland",53.6030953,-7.5831872
"GRANGE CON N S, Grangecon, Dunlavin","Grangecon Parks, Grangecon, Co. Wicklow, Ireland",52.997873,-6.74315
"BALLYCONNELL N S, Ballyconnell, Tullow","Ballyconnell, Cullyleenan, Ballyconnell, Co. Cavan, Ireland",54.1136857,-7.5819906
"GLENEALY 1 N S, Glenealy, Co. Wicklow","Ballymanus Lower, Glenealy, Co. Wicklow, Ireland",52.9666341,-6.1445729
"ESKER N S, Esker, Athenry","Esker, Athenry, Co. Galway, Ireland",53.2786183,-8.6816856
"SCOIL CROI IOSA, Newcastle Road, Galway","Presentation Primary School, Newcastle Road, Galway, Ireland",53.2742202,-9.0626292
"S N POL NAOFA, Church Road, Castlerea","Demesne, Castlerea, Co. Roscommon, Ireland",53.7686571,-8.4924537
"BAILE AN CHUILINN N S, Ballinkillen, Muine Bheag","Ballinkillin, Ballinkillen, Co. Carlow, Ireland",52.65396,-6.93134
"LEITRIM MXD N S, Leitrim Village, Carrick-on-Shannon","The Dock Arts Centre, St Georges Terrace, Townparks, Carrick-On-Shannon, Co. Leitrim, N41 T2X2, Ireland",53.9450428,-8.0966432
"S N NA H-AILLE, Westown, Naul","Westown Ave, Hynestown, Naul Village, Co. Dublin, Ireland",53.5841591,-6.2883621
"STRAWBERRY HILL B N S, Blarney Street, Sunday's Well","1 Blarney St, Sunday's Well, Cork, Ireland",51.9008431,-8.5002409
"NEWTOWN DUNLECKNEY MXD, Newtown, Muinebheag","11 Main St, Clonegah, Co. Carlow, Ireland",52.7227582,-6.8767292
"S N CHUAN DOIR, Drombeg, Glandore","Drombeg, Glandore, Co. Cork, Ireland",51.564569,-9.0873795
"TIPPERARY JNR BN S, St Michael's Street, Tipperary","31 St Michael's St, Carrownreddy, Co. Tipperary, E34 X788, Ireland",52.4772019,-8.1599787
"ST MICHAELS NATIONAL SCHOOL, Danesfort, Co. Kilkenny","Saint Michael's National School, Pigeonpark, Danesfort, Co. Kilkenny, R95 X527, Ireland",52.5828769,-7.2416512
"STACKALLEN N S, Stackallen, Navan","Curniaghanstown, Navan, Co. Meath, Ireland",53.7107563,-6.620925
"KILTORMER N S, Kiltormer, Ballinasloe","Kiltormer, Moaty, Ballinasloe, Co. Galway, Ireland",53.2356206,-8.2743395
"KILNALECK MIXED N S, Barrack Road, Kilnaleck","Barrack Rd, Co. Cavan, Ireland",53.8583069,-7.3180517
"AGLISH N S, Aglish, Cappoquin","Aglish, Cappoquin, Co. Waterford, Ireland",52.0732106,-7.8235611
"TULLOHA NATIONAL SCHOOL, Bonane, Kenmare","Kenmare, Co. Kerry, Ireland",51.8801017,-9.5835203
"RATHOE NS, Rathoe, Co. Carlow","Rathoe National School, Rathtoe, Rathoe, Co. Carlow, Ireland",52.7875272,-6.7997553
"KILSKYRE MIXED N S, Kilskyre, Kells","Kilskyre, Kilskeer, Kells, Co. Meath, Ireland",53.6938579,-6.9959853
"S N COLUMCILLE, Tullydonnell, Togher","Tullydonnell, Togher, Co. Louth, Ireland",53.838053,-6.3361433
"ST. MOCHTA'S NATIONAL SCHOOL, Louth Village, Co. Louth","22 Feran Dr, Commons, Louth, A91 DT80, Ireland",53.9501285,-6.5435177
"BAILE AN PHUSTA N S, Ballapousta, Ardee","Smarmore, Ballapousta, Co. Louth, Ireland",53.8216201,-6.5584044
"BALLYCAHILL N S, Ballycahill, Thurles","Thurles, Co. Tipperary, Ireland",52.6801064,-7.8044421
"S N NAOMH PADRAIG, Carrowhill, Drumfries","Drumfries, Carroghill, Clonmany, Co. Donegal, Ireland",55.1988576,-7.3933738
"SCOIL NAOMH IÓSAF, Connaghkinnego, Ballymagan","Scoil Naomh Iósaf, Connaghkinnego, Connaghkinnagoe, Buncrana, Co. Donegal, Ireland",55.15701,-7.3541386
"GLOUNAGUILLAGH N S, Glannagilliagh, Caragh Lake","Glounaguillagh National School, Glannagilliagh, Caragh Lake, Co. Kerry, V93 HX07, Ireland",52.0720144,-9.8325634
"ST JOHNS, Goldengrove Road, Roscrea","Roscrea, Townparks, Roscrea, Co. Tipperary, Ireland",52.9551789,-7.7984696
"S N COR NA FOLA B, Cornafulla, Athlone","Cornafulla House, Cornafulla, Athlone, Co. Roscommon, Ireland",53.3753507,-8.0051352
"BALLINDINE B N S, Ballindine, Claremorris","Unit 2 /3, Claremorris Retail Centre, Ballindine Rd, Lugalisheen South, Claremorris, Co. Mayo, Ireland",53.6728505,-8.9567623
"DROMLEIGH N S, Dromleigh, Kilmichael","Dromleigh National School, Dromleigh, Macroom, Co. Cork, Ireland",51.8343868,-9.0383537
"FIRMOUNT MIXED N S, Firmount, Donoughmore","Firmount, Donoughmore, Co. Cork, Ireland",51.9877808,-8.6979103
"S N CILL ROSANTA, Kilrossanty, Kilmacthomas","Kilrossanty, Cutteen, Co. Waterford, Ireland",52.1782195,-7.540557
"BALLYNACARGY MIXED N S, Ballynacargy, Co. Westmeath","1 Carrickmore Estate, Moranstown, Ballynacarrigy, Co. Westmeath, N91 FR94, Ireland",53.585042,-7.5372572
"ARDARA MIXED N S, Back Road, Ardara","Ardara Mixed National School, Back Rd, Ardara, Co. Donegal, Ireland",54.7640527,-8.4113885
"S N NAOMH PADRAIG, Barnacleagh, Arklow","Bearna Chle, Arklow, Co. Wicklow, Ireland",52.7982788,-6.1561499
"CENTRAL INFS SCHOOL, Marlborough Street, Dublin 1","Marlborough St, North City, Dublin, Ireland",53.3513517,-6.2558236
"S N RATH MOR, Rathmore, Naas","Rathmore West, Rathmore, Co. Kildare, Ireland",53.2060287,-6.5697878
"ST CANICE S CONVENT, Rosbercon, New Ross","Rosbercon, New Ross, Co. Wexford, Y34 VH61, Ireland",52.3975912,-6.9526612
"TIPPERARY G N S, St Michael's Street, Tipperary","Courtville, St Michael's St, Carrownreddy, Co. Tipperary, Ireland",52.4770685,-8.1599693
"BALLYFORAN MIXED N S, Ballyforan, Ballinasloe","Ballinasloe Ballyforan Ballinasloe, Ballyforan, Co. Galway, Ireland",53.4697671,-8.2735544
"CASTLELYONS B N S, Castlelyons, Co. Cork","Castlelyons National School, Ballinvarrig East, Castlelyons, Co. Cork, Ireland",52.0826369,-8.2291032
"CROAGH NATIONAL SCHOOL, Croagh, Rathkeale","Ballycannon, Croagh, Co. Limerick, Ireland",52.5343874,-8.8733756
"BALLINTOGHER N S, Kingsfort, Ballintogher","Kingsfort, Ballintogher, Co. Sligo, Ireland",54.2006449,-8.3649676
"S N BAILE UI GHIBLIN, Ballygiblin, Mitchelstown","Mitchelstown, Ballinwillin, Mitchelstown, Co. Cork, Ireland",52.2662127,-8.2698863
"SCOIL NAIS MOLAISE, Parknakyle, Old Leighlin","Old Leighlin, Co. Carlow, Ireland",52.739728,-7.0336882
"DUALLA N S, Dualla, Cashel","Dualla NS, Rathclogh North, Dualla, Co. Tipperary, E25 E288, Ireland",52.5396762,-7.8158601
"CROWENSTOWN N S, Crowenstown, Delvin","Crowenstown House, Crowinstown Great, Delvin, Co. Westmeath, Ireland",53.6112835,-7.0370318
"MILLSTREET CONVENT N S, West End, Millstreet","Millstreet, Drominahilla, Millstreet, Co. Cork, Ireland",52.0589213,-9.0657421
"ST OLIVERS NS, Dundalk Street, Carlingford","Dundalk St, Liberties of Carlingford, Carlingford, Co. Louth, Ireland",54.0371322,-6.1843937
"TEMPLEGLANTINE N S, Templeglantine East, Co. Limerick","Templeglantine, Templeglentan East, Templeglantine, Co. Limerick, Ireland",52.3946392,-9.1800805
"S N NAOMH EOIN, Rath, Fivealley","Scoil Náisiúnta Naomh Eoin, Páirceanna an Bhaile, Biorra, Co. Contae Uíbh Fhailí, Ireland",53.0980052,-7.9096882
"Knockaderry Farranfore National School, Farranfore, Killarney","Farranfore, Co. Kerry, Ireland",52.1715992,-9.5477977
"LACKAMORE N S, Lackamore, Newport","Newport, Co. Tipperary, V94 V5D1, Ireland",52.694825,-8.3222579
"S N MHUIRE, Bauroe, Feakle","Baurroe, Feakle, Co. Clare, Ireland",52.9260682,-8.6486521
"CLOYNE NATIONAL SCHOOL, Cloyne, Co. Cork","Cloyne, Spital, Cloyne, Co. Cork, Ireland",51.861739,-8.1276595
"SAN ISADOIR, Nodstown South, Boherlahan","Boherlahan, Nodstown South, Cashel, Co. Tipperary, Ireland",52.5722306,-7.8932312
"SUNDAYS WELL G N S, Strawberry Hill, Blarney Road","Strawberry Hill, Sunday's Well, Old Blarney Road, Co. Cork, Ireland",51.9008895,-8.5003618
"TALLONSTOWN N S, Tallanstown, Dundalk","Tallanstown National School, Rathbrist, Tallanstown, Co. Louth, Ireland",53.9194496,-6.5497066
"S N MULLACH BUI, Castletowncooley, Riverstown","Riverstown, Loughanmhór, Co. Louth, Ireland",54.0052896,-6.2237442
"BANTEER N S, Banteer, Co. Cork","Clonmeen Road, Banteer, Co. Cork, Ireland",52.1311925,-8.8907678
"S N SHEANAIN, Corgrigg, Foynes","Ballynacragga North, Foynes, Co. Limerick, Ireland",52.6105253,-9.1051123
"St. Mary's National School, Lamb's Cross, Sandyford","Lambs Cross, Woodside, Dublin 18, Ireland",53.2641698,-6.2294117
"S N AN CHLAIS MHOR, Clashmore, Co. Waterford","Clash, Ballinclamper, Co. Waterford, Ireland",52.0861865,-7.5619837
"S N NAOMH PADRAIG, Baconstown, Enfield","Baconstown, Enfield, Co. Meath, Ireland",53.444229,-6.803101
"SCOIL NA GCOILLINI, Meelick, Swinford","Meelick, Loughane, Co. Mayo, Ireland",53.9224386,-9.0187502
"S N SLIABH A MHADRA, Ballyduff, Tralee","Slievawaddra, Ballyduff, Co. Kerry, Ireland",52.4606155,-9.7163034
"MERCY PRIMARY SCHOOL, Chapel Lane, Birr","Chapel Lane, Seefin, Birr, Co. Offaly, R42 TX89, Ireland",53.0931765,-7.9092669
"NEWTOWN N S, Newtown, Ardee","Newtown National School, Bigstown, Ardee, Co. Meath, Ireland",53.8203016,-6.6079867
"S N CAISEAL NA GCORR, Gort a Choirce, Leitir Ceanainn","Gortahork, Co. Donegal, Ireland",55.1200955,-8.1332033
"BALLYROAN B N S, Ballyroan Road, Rathfarnham","Ballyroan Rd, Willbrook, Dublin 16, Ireland",53.2863418,-6.2944063
"S N AINDREIS NAOFA, Leitrim, Kylebrack East","Liathdruim, Kylebrack, Loughrea, Co. Galway, Ireland",53.1399803,-8.4664135
"SCOIL NÁISIÚNTA BHANTIARNA LOURDES, Hospital Hill, Bunclody","Bunclody, Ballinapark, Bunclody, Co. Wexford, Ireland",52.6550857,-6.652193
"S N SEAN BAILE MOR, Main Street, Shanballymore","Shanballymore Lower, Shanballymore, Co. Cork, Ireland",52.2187977,-8.4759914
"WALSHESTOWN N S, Walshestown, Clogherhead","Walshestown, Co. Louth, Ireland",53.8060399,-6.3076997
"TOONAGH N S, Fountain, Ennis","Toonagh, Ennis, Co. Clare, Ireland",52.8903185,-9.0347438
"NAOMH PADRAIG BOYS, Cambridge Road, Ringsend","Cambridge Rd, Dublin, D04 AP98, Ireland",53.3433918,-6.2253548
"OWENBEG N S, Owenbeg, Culleens","Unnamed Rd, Shannonspark West, Easky, Co. Sligo, Ireland",54.286325,-8.9623692
"MULLACH N S, Mullagh, Ennis","Mullagh, Finnor More, Ennis, Co. Clare, Ireland",52.7996527,-9.4200258
"S N AN CHUIL, Coole, Mullingar","Fearmore, Coole, Co. Westmeath, Ireland",53.6992601,-7.3666546
"S N NAOMH PEADAR, Pouldine, Thurles","Thurles, Co. Tipperary, Ireland",52.6801064,-7.8044421
"BALLINDANGAN MIXED N S, Ballindangan, Mitchelstown","Ballindangan National School, Flemingstown, Mitchelstown, Co. Cork, Ireland",52.236282,-8.336495
"LISTOWEL PRESENTATION PRIMARY, Ballybunion Road, Listowel","Listowel, Co. Kerry, Ireland",52.4486895,-9.4961491
"CONVENT OF MERCY, Church Road, Newport","Sisters of Saint Joseph of Annecy, 173 Chepstow Rd, Newport NP19 8GH, UK",51.5897815,-2.9762643
"MOYGLASS N S, Moyglass, Fethard","Moyglass, Moglass, Fethard, Co. Tipperary, Ireland",52.5277526,-7.7081838
"SCOIL NAIS BHRIDE, Grange, Tullow","Grange Beg, Shillelagh Rd, Grangewat, Tullow, Co. Carlow, Ireland",52.837568,-6.7821554
"LEAMLARA MIXED N S, Leamlara, Co. Cork","Clash West, Leamlara, Co. Cork, Ireland",51.96986,-8.2639146
"S N CNOC AN BHILE, Knockavilla, Innishannon","Knockavilla, Knockgorm, Co. Cork, Ireland",51.8008055,-8.6848101
"S N BHIORAINN, Berrings, Co. Cork","Gortatray, Berrings, Co. Cork, Ireland",51.9374329,-8.6974398
"KILMESSAN MXD N S, Kilmessan, Co. Meath","Ringlestown, Kilmessan, Co. Meath, Ireland",53.5607122,-6.6626897
"SCOIL NAOMH EOIN, Ballincurrig, Cork","Scoil Naomh Eoin, Ballincurrig, Co. Cork, Ireland",51.9892109,-8.228013
"KYLE N S, Kyle, Youghal","Kyle House, Kyle, Youghal, Co. Cork, Ireland",51.9531544,-7.9419843
"BALLYMARTIN N S, Manister, Croom","Granagh, Manister, Co. Limerick, Ireland",52.45026,-8.74915
"S N FIODHNACH, Feenagh, Kilmallock","Gortmore, Feenagh, Co. Limerick, Ireland",52.3901188,-8.8801067
"S N NAITHI NAOFA, Achonry, Tubbercurry","Achonry, Tubbercurry, Co. Sligo, Ireland",54.0801158,-8.6606961
"SCOIL NA NGASUR, Maree Road, Oranmore","Maree Rd, Oran More, Oranmore, Co. Galway, Ireland",53.2640706,-8.9309954
"SCOIL AN LINBH IOSA, St Francis Street, Galway","St Francis St, Galway, Ireland",53.275753,-9.0537997
"SCOIL SEANAIN NAOFA, Clonlara, Co. Clare","Cloonlara, Co. Clare, Ireland",52.7242526,-8.5543906
"BALLYVONGANE MIXED N S, Ballyvongane, Aghinagh,","Ballyvongane National School, Bealnamorrive, Coachford, Co. Cork, Ireland",51.9319823,-8.8591582
"THOMASTOWN N S, Ardobireen, Thomastown","4 Árd Mhuire, Ardobireen, Golden, Co. Tipperary, E25 ET96, Ireland",52.4934094,-8.0190559
"BRACKLOON N S, Brackloon, Westport","Tawnynameeltoge, Brackloon, Co. Mayo, F28 E8Y9, Ireland",53.7545927,-9.5641037
"ROOSKEY N S, Rooskey, Carrick-on-Shannon","Rooskey, Roosky, Carrick On Shannon, Co. Leitrim, Ireland",53.8322125,-7.927312
"CLOONACOOL N S, Cloonacool, Tubbercurry","Leitrim North, Cloonacool, Co. Sligo, Ireland",54.100753,-8.7778571
"SCOIL AN AINGIL CHOIMHEADAI, An Céideadh,, Ailt An Chorráin","Burtonport, Co. Donegal, Ireland",54.9973526,-8.4185728
"CRATLOE N S, Cratloe, Co. Clare","Cratloe Woods, Laghile, Co. Clare, Ireland",52.6995085,-8.7554178
"BALLYHASS MIXED N S, Ballyhass, Cecilstown","Cecilstown, Two Gneeves, Mallow, Co. Cork, Ireland",52.1741854,-8.804743
"SCOIL AN CROI NAOFA, St Canice's Road, Ballygall","St Canice's Rd, Glasnevin, Dublin, Ireland",53.3840933,-6.2738992
"KELLS PAROCHIAL N S, Navan Road, Kells","Carrick St, Gardenrath, Kells, Co. Meath, Ireland",53.7246994,-6.8670271
"S N BAILE MUIRNE, Ballymurn, Enniscorthy","Enniscorthy, Co. Wexford, Ireland",52.5068183,-6.5819746
"S N AN LEANA MOR, Lenamore, Co. Longford","Legan, Smithfield, Lenamore, Co. Longford, Ireland",53.6212481,-7.6308386
"LEHINCH N S, Lissatava, Hollymount","Lissatava, Hollymount, Co. Mayo, F12 FT92, Ireland",53.6595962,-9.0749359
"NEW INN B N S, New Inn, Cashel","Cashel, Co. Tipperary, Ireland",52.5159097,-7.8915829
"SCOIL NAOMH CHOLMCILLE, Oileán Thoraí, Co. Dhún na nGall","Scoil Naomh Cholmcille, Tory Island, Co. Donegal, Ireland",55.265006,-8.2245634
"S N MICHIL NAOFA, Woodbrook, Carrick-on-Shannon","Carrick-On-Shannon, Co. Leitrim, Ireland",53.9451156,-8.0861878
"COMHSCOIL CHONMHA S N, Main Street, Convoy","Main St, Lifford, Co. Donegal, Ireland",54.8329204,-7.4822384
"O CALLAGHANS MILLS N S, Iragh, O'Callaghan's Mills","Iragh, Lissane, O'Callaghansmills, Co. Clare, Ireland",52.8404847,-8.672218
"PRESENTATION CONVENT, Dunmanway Road, Bandon","Dunmanway Rd, Coolfadda, Bandon, Co. Cork, Ireland",51.7488353,-8.7439316
"Tahilla Community National School, Tahilla, Sneem","Tahilla, Sneem, Co. Kerry, Ireland",51.8339385,-9.8228468
"LARAGH N S, Laragh, Bandon","Laragh, Bandon, Co. Cork, P72 RY79, Ireland",51.7578958,-8.7899784
"SCOIL NAOIMH EANNA, Killanny, Carrickmacross","Killanny, Lannat, Carrickmacross, Co. Monaghan, Ireland",53.9583425,-6.6496118
"ST COLUMBAS N.S, With Facility for Deaf Children, Douglas West","122 W Washington St, Ottawa, IL 61350, USA",41.3511757,-88.8415563
"CASTLEPOLLARD MIXED N S, Water Street, Castlepollard","Water St, Townparks, Castlepollard, Co. Westmeath, N91 Y206, Ireland",53.6815554,-7.2961493
"SN BAILE MHIC AIRT, S.N. Bhaile Mhic Airt, Dún Garbhán","Ballintlea North, Old Parish, Dungarvan, Co. Waterford, X35 CR20, Ireland",52.0067506,-7.6399254
"TRAFRASK MIXED N S, Trafrask, Adrigole (Beara)","Trafrask National School, Trafrask East, Adrigole, Co. Cork, Ireland",51.6872472,-9.6648601
"CLOCHAR SAN DOMINIC, Convent Road, Dun Laoghaire","Convent Rd, Dún Laoghaire, Dublin, Ireland",53.2923398,-6.1379416
"BAILIEBORO MODEL N S, Bailieborough, Co. Cavan","Bailieborough, Beckscourt, Bailieborough, Co. Cavan, Ireland",53.9171451,-6.9739934
"SCOIL MHICHIL NA BUACHAILLI, Patrick Street, Trim","Patrick St, Trim, Co. Meath, Ireland",53.5515853,-6.7915623
"DUNMANWAY MODEL N S, Bantry Road, Dunmanway","Dunmanway South, Dunmanway, Co. Cork, Ireland",51.7171333,-9.1157026
"S N AN GHOILIN, Goleen, Co. Cork","Goleen, Co. Cork, Ireland",51.4938734,-9.7095644
"S N CREACHMHAOIL, Crinnage, Craughwell","Crinnage, Craughwell, Co. Galway, Ireland",53.2368366,-8.7514183
"BURRISCARRA N S, Carrownacon, Ballyglass","Burriscarra, Ballintubber, Co. Mayo, Ireland",53.736857,-9.2428788
"St. Anne's National School, Main Street, Tyrellspass","Ballykilmore, Tyrrellspass, Co. Westmeath, N91 A5R7, Ireland",53.3888652,-7.3757224
"CHURCH HILL MIXED N S, Church Hill, Cuffesgrange","Church Hill National School, Church Hill, Cuffesgrange, Co. Kilkenny, Ireland",52.5999798,-7.3082575
"PRESENTATION PRIMARY SCHOOL, George's Hill, Halston Street","Halston St, Dublin 7, Ireland",53.3483489,-6.2715493
"SCOIL URSULA, Blackrock Road, Cork","Scoil Ursula, Blackrock Rd, Blackrock, Cork, Ireland",51.8956964,-8.4145188
"SCOIL BARR DUBH, Barraduff, Headford","Kilquane, Barraduff, Co. Kerry, Ireland",52.0593017,-9.3358106
"ROCKCORRY N S, Rockcorry, Co. Monaghan","Rockcorry, Corkeeran, Rockcorry, Co. Monaghan, Ireland",54.1178982,-7.0148382
"S N CILL CUILE, Kilcooley, Loughrea","N65, Ballydavid, Co. Galway, Ireland",53.2005581,-8.455274
"S N CILL RONAIN, Keadue West, Boyle","Kilronan, Camderry, Co. Roscommon, Ireland",54.0656885,-8.1770617
"DOOHAMLET N S, Doohamlet, Castleblayney","Doohamlet National School, Dernaglug, Castleblayney, Co. Monaghan, Ireland",54.1291448,-6.8306647
"BLESSINGTON 1 N S, Blessington Demesne, Blessington","Blessington Demesne, Red Lane, Co. Wicklow, Ireland",53.1759855,-6.5459079
"BOOTERSTOWN BOYS, Grotto Place, Booterstown","Grotto Pl, Merrion, Booterstown, Co. Dublin, Ireland",53.3089988,-6.1987888
"ATHY MODEL SCHOOL, Tomard, Athy","Model School, Tomard, Athy, Co. Kildare, R14 Y478, Ireland",53.0032201,-6.9856007
"SN MHAOLCHEADAIR, An Charraig, Baile na nGall","Carrick, Co. Donegal, Ireland",55.104545,-8.2860586
"FREEMOUNT MIXED N S, Freemount, Charleville","Freemount, Knocknamuck, Charleville, Co. Cork, Ireland",52.2780563,-8.8845035
"VICARSTOWN MIXED N S, Gilclough, Vicarstown","Gilcagh, Co. Cork, Ireland",51.9547081,-8.6565838
"S N AN TSAILEAIN, Sylane, Tuam","Tuam, Co. Galway, Ireland",53.5141156,-8.8565177
"KILDIMO NATIONAL SCHOOL, Kildimo, Co. Limerick","Ballyvareen, Kildimo, Co. Limerick, Ireland",52.6211635,-8.8115252
"KNOCKEA NATIONAL SCHOOL, Knockea, Ballyneety","Knockea, Ballyneety, Co. Limerick, Ireland",52.6061053,-8.5722058
"DROMIN N S, Dromin, Dunleer","Dromin, Dunleer, Co. Louth, Ireland",53.8444493,-6.4444094
"Ringville National School, Ballinlaw, Slieverue","Ringville National School, Ballinlaw, Slieverue, Co. Kilkenny, Ireland",52.2987762,-7.0342952
"KILADANGAN N S, Kiladangan National School, Puckane","Ballycraggan, Glebe, Nenagh, Co. Tipperary, Ireland",52.9311708,-8.2390214
"LISRONAGH N S, Lisronagh, Clonmel","Lisronagh, Clonmel, Co. Tipperary, Ireland",52.4177263,-7.7038901
"GARRACLOON N S, Garracloon, Cloghans","Garracloon, Newtown Cloghans, Co. Mayo, Ireland",54.0907066,-9.2285528
"ST JOHNS CONVENT, Cathedral Place, Limerick","Cathedral Pl, Limerick, Ireland",52.6618831,-8.6163235
"CLONROCHE N S, Clonroche, Enniscorthy","Enniscorthy Rd, Enniscorthy, Co. Wexford, Ireland",52.4474669,-6.7245608
"St Patrick's NS, Corlough, Belturbet","Cornacleigh, Corlough, Co. Cavan, Ireland",54.1235639,-7.7688977
"BALLYCLOUGH MIXED N S, Ballyclough, Co. Cork","Ballyclogh, Co. Cork, Ireland",52.0618477,-8.0221901
"CULLENS N S, Faranoo, Ballina","Ballina, Faranoo North, Co. Mayo, Ireland",54.1380922,-9.1638727
"S N NAOMH FEICHIN, Cross, Claremorris","Clare, Claremorris, Co. Mayo, Ireland",53.7238764,-9.0017356
"S N LOCH GUIR, Patrickswell, Bruff","Lough Gur, Co. Limerick, Ireland",52.5163151,-8.5338763
"KILLYON N S, Hill of Down, Co. Meath","Killyon National School, Clondalee Beg, Hill of Down, Co. Meath, Ireland",53.4860249,-7.0024289
"MONREAGH N S, Monreagh, Carrigans","Monreagh National School, Monreagh, Carrigans, Co. Donegal, Ireland",54.956356,-7.4571077
"ST JOSEPHS GIRLS N.S., Davitt Road, Mountmellick","Davitt Rd, Ballycullenbeg, Mountmellick, Co. Laois, Ireland",53.1133662,-7.3188819
"S N SEOSAMH, Blueball, Tullamore","Tullamore, Co. Offaly, Ireland",53.2755255,-7.4933852
"BANOGUE NATIONAL SCHOOL, Dohora, Banogue","Banogue, Ballynabanoge, Croom, Co. Limerick, Ireland",52.4807181,-8.7081204
"CLOGHROE MIXED N S, Cloghroe, Co. Cork","Cloghroe, Blarney, Co. Cork, T23 AH2R, Ireland",51.9178279,-8.6165928
"CULLEN N S, Cullen, Co. Tipperary","Cullen National School, Monearmore, Cullen, Co. Tipperary, Ireland",52.5115891,-8.2778414
"Ravenswell Primary School, Ravenswell, Bray","Dublin Rd, Ravenswell, Bray, Co. Wicklow, A98 X8X7, Ireland",53.2094729,-6.1102349
"HOLY FAMILY SNR, Station Road, Ennis","Station Rd, Clonroad Beg, Ennis, Co. Clare, Ireland",52.8420655,-8.9817448
"GLENGURT N S, Tournafulla, Ballagh","Glengurt, Knocknadiha, Tournafulla, Co. Limerick, Ireland",52.362988,-9.163824
"S N SCEICHIN A RINCE, Skeheenarinky, Burncourt","Burncourt, Co. Tipperary, Ireland",52.3113101,-8.0792299
"BALLINTUBBER N S, Ballintubber, Claremorris","Ballintubber NS Lufferton, Skehanagh Lower, Ballintober, Co. Mayo, F12 KW18, Ireland",53.758423,-9.3054749
"BALLYCURRANE N S, Clashmore, via Youghal","Ballycurrane, Clashmore, Co. Waterford, Ireland",52.0087143,-7.7721539
"St Josephs National School, Borrin-in-Ossory, Portlaoise","4 Church Street, Townparks, Borris-in-Ossory, Co. Laois, R32 TD51, Ireland",52.93938,-7.630777
"SCOIL MHUIRE GAN SMAL, Ballygar, Co. Roscommon","Ballygar, Tullyroe, Ballygar, Co. Galway, Ireland",53.5225627,-8.3257391
"BROWNEKNOWE N S, Brownknowe, Ramelton","Brownknowe, Ramelton, Co. Donegal, Ireland",55.0606118,-7.6213522
"KILMOGANNY MIXED N S, Cottresllstown, Kilmoganny","Cottrellstown, Kilmoganny, Co. Kilkenny, Ireland",52.4613287,-7.3289369
"S N CNOC AN MHARCAIGH, Melview, Longford","Knockawalky, Melview, Co. Longford, Ireland",53.75998,-7.79188
"GOLDENBRIDGE CONVENT, Saint Vincent Street West, Goldenbridge","Goldenbridge Walk, Inchicore, Dublin 8, D08 AY94, Ireland",53.3366415,-6.3190564
"BALLINDERREEN MXD N S, Ballinderreen, Kilcolgan","Ballinderreen, Co. Galway, Ireland",53.1849544,-8.9098064
"S N AN IORBALL RIABAIGH, Urblereagh, Malin Head","Urbalreagh National School, Urbalreagh, Malin Head, Co. Donegal, Ireland",55.3360596,-7.2878238
"ST FINTANS N S, New Line Road, Mountrath","New Line Cl, Mountrath, Co. Laois, Ireland",52.9986259,-7.4788203
"ST JOSEPH'S GIRLS NATIONAL SCHOOL, Convent Road, Clonakilty","Convent Rd, Scartagh, Clonakilty, Co. Cork, Ireland",51.6260391,-8.8808829
"ST PETERS N S SNR, Excise Street, Athlone","Excise St, Athlone, Co. Westmeath, Ireland",53.4218106,-7.9420892
"VILLIERSTOWN N S, Villierstown, Cappoquin","Ballingowan West, Villierstown, Co. Waterford, Ireland",52.0882445,-7.850768
"MONAGHAN MODEL SCHOOL, North Road, Monaghan","N Rd, Kilnacloy, Monaghan, Ireland",54.2511178,-6.9721702
"CHURCHTOWN N S, Churchtown, Athy","Churchtown, Athy, Co. Kildare, Ireland",53.0093311,-7.0516426
"KILGOBNET N S, Beaufort, Killarney","Kilgobnet, Beaufort, Kilgobnet, Killarney, Co. Kerry, Ireland",52.0655656,-9.7295107
"S N AILBHE, Killinure, Brittas",.,.,.
"BALLYSTEEN N S, Ballysteen, Askeaton","Beagh, Ballysteen, Co. Limerick, Ireland",52.6468164,-8.951776
"S N OSMANN, Model School Road, Birr","Model School Rd, Townparks, Co. Offaly, Ireland",53.0994539,-7.9144953
"SCOIL NAOMH CARTHACH, Ballyfinane, Firies","Firies, Killahane, Killarney, Co. Kerry, Ireland",52.1708717,-9.596077
"TANG N S, Clogher, Tang","Corbrack, Tang, Co. Westmeath, Ireland",53.5351792,-7.7927649
"ST LAURENCES NATIONAL SCHOOL, Sallins, Co. Kildare","Kerdiffstown Road, Sallins, Co. Kildare, W91 AD80, Ireland",53.2483774,-6.6614967
"S N PHADRAIG, Edmonstown, Killucan","Glebe, Killucan, Co. Westmeath, Ireland",53.5136852,-7.1427857
"S N MHUIRE, Bawn Road, Swanlibar","Swanlinbar, Hawkswood, Swanlinbar, Co. Cavan, Ireland",54.1937636,-7.7047113
"Scoil an Ghleanna Pobal Scoil Náisi, Aghort The Glen, Baile an Sceilg",.,.,.
"ST SENANS NATIONAL SCH, Templeshannon, Enniscorthy","Templeshannon, Enniscorthy, Co. Wexford, Ireland",52.504536,-6.5566341
"SCOIL NAOMH MICHEAL, West End, Sneem","Inchinaleega East, Sneem, Co. Kerry, V93 X243, Ireland",51.8385167,-9.9043117
"HOLY TRINITY NATIONAL SCHOOL, Newport Road, Westport","Newport Road, Cahernamart, Westport, Co. Mayo, Ireland",53.8017782,-9.5213563
"BOHERMORE N S, Srahane, Ballysimon","Bohermore, Anglode, Ballysimon, Co. Limerick, Ireland",52.6111579,-8.5250538
"GORTANUMERA N S, Ballyshrule, Ballinasloe","Ballyshrule, Creggeen, Ballinasloe, Co. Galway, Ireland",53.1125288,-8.2878757
"MASTERSONS N S, Church Lane, Manorhamilton","Church Ln, Manorhamilton, Co. Leitrim, Ireland",54.3051287,-8.1728495
"S N RATH DUBH, Rathduff, Grenagh","Rathduff, Co. Cork, Ireland",52.0167102,-8.5831059
"ARDPATRICK N S, Ardpatrick, Kilmallock","Sunville Upper, Ardpatrick, Co. Limerick, Ireland",52.3434276,-8.5188954
"SCOIL NAOMH SEOSAMH, Gortnaclohy, Skibberreen","Gortnaclohy Dr, Co. Cork, Ireland",51.5489214,-9.2457269
"SN TULLACH UI CHADHAIN, Tulach Uí Chadhain, Maigh Cuilinn","Killarainy, Moycullen, Co. Galway, Ireland",53.3387481,-9.1814776
"S N CRUABANAI, Crubany, Co. Cavan","Crubany, Co. Cavan, Ireland",53.9637748,-7.3229896
"ST CLARES PRIMARY SCHOOL, Ard Mhuire, Cavan","Cock Hill, Aghnaskerry, Cavan, Ireland",53.9924444,-7.3565801
"IOMAIR N S, Killimor, Ballinasloe","Killimor, Lisduneen, Ballinasloe, Co. Galway, Ireland",53.159153,-8.2017784
"LAURAGH NATIONAL SCHOOL, Lauragh Lower, Co. Kerry","Lauragh National School, Lauragh Lower, Co. Kerry, Ireland",51.7640706,-9.7774158
"BRUREE NATIONAL SCHOOL, Bruree, Co. Limerick","Kilmallock Rd, Fortyacres, Bruree, Co. Limerick, Ireland",52.4228841,-8.6491696
"THE HUNT N S, Castle Street, Mohill","Castle St, Mohill, Co. Leitrim, Ireland",53.9226451,-7.8650864
"S N MUIRE GAN SMAL, Coars, Mastergeehy","Coars, Cahirciveen, Co. Kerry, Ireland",51.9404602,-10.1117716
"LISSIVIGEEN MXD N S, Lissivigeen, Killarney","Lissyviggeen, Killarney, Co. Kerry, Ireland",52.0511318,-9.4588459
"KILCORNEY MIXED N S, Kilcorney, Rathcoole","Rathcoole National School, Mallow, Co. Cork, Ireland",52.0941821,-8.9734088
"ST NICHOLAS CHURCH OF IRELAND SCHOO, Blackabbey, Adare","N21, Gortaganniff, Adare, Co. Limerick, Ireland",52.567839,-8.784765
"MILLTOWN N S, Monea, Milltown","Money, Milltown, Co. Cavan, Ireland",54.0648764,-7.4752867
"CASTLEALACK N S, Castlelack, Bandon","Castlealack, Littlesilver, Bandon, Co. Cork, Ireland",51.7803174,-8.7394361
"ROCKFIELD N S, Rockfield National School, Knocknashangan","Rockfield National School, Cloghore, Ballyshannon, Co. Donegal, Ireland",54.4831575,-8.1192776
"NEWTOWNWHITE Educate Together NS, Ballysakeery, Ballina","Ballysakeery, Ballina, Co. Mayo, Ireland",54.1869044,-9.1795375
"S N AN BHAIN MHOIR, Cloghaun, Claregalway","Cloghaun, Clogher, Co. Galway, Ireland",53.3762503,-8.944668
"CARNANE MXD N S, Carnane, Fedamore","Carnane, Arywee, Kilmallock, Co. Limerick, Ireland",52.5712485,-8.5811768
"OUR LADY OF MERCY N S, Summerhill, Bantry","Our Lady of Mercy National School, Summerhill, Bantry, Co. Cork, Ireland",51.6789948,-9.4437041
"SHIELBEGGAN CONVENT, Shielbaggan, New Ross","Shelbaggan, Co. Wexford, Ireland",52.2621221,-6.8810477
"SCOIL MHUIRE, Magherarney, Smithborough","Magherarney, Magherarny, Smithborough, Co. Monaghan, Ireland",54.2166118,-7.1119168
"BOHER N S, Boher, Ballina","Boher, Killaloe, Co. Tipperary, Ireland",52.8020412,-8.3675674
"GEASHILL 1 N S, Geashill, Co. Offaly","Geashill, Co. Offaly, Ireland",53.234317,-7.3225923
"CASTLEDRUM N S, Castledrum, Castlemain","1 Tralee Rd, Ross, Castlemaine, Co. Kerry, V93 E510, Ireland",52.1742552,-9.7718559
"BALLINLOUGH N S, Ballinlough, Kells","R163, Smithstown, Co. Meath, Ireland",53.7323416,-7.028203
"S N LIOS TEILIC, Listellick, Tralee","4, Gurrane, Co. Kerry, V92 RC5C, Ireland",52.2981973,-9.6944455
"OUR LADYS ABBEY, Blackabbey, Adare","Scoil Na gCailini, Blackabbey, Adare, Co. Limerick, Ireland",52.5655422,-8.7878649
"GLENFLESK N S, Glenflesk, Killarney","Curraglass, Killeen, Glenflesk, Co. Kerry, V93 PX30, Ireland",51.9948179,-9.3131602
"RAHEEN NATIONAL SCHOOL, Raheen, Headford","Raheen, Headford, Raheen, Killarney, Co. Kerry, Ireland",52.0875478,-9.3662793
"CROOM NATIONAL SCHOOL, High Street, Croom","High St, Tooreen, Croom, Co. Limerick, Ireland",52.5209825,-8.7132966
"SCOIL NAIS MHUIRE, Drumphea, Bagenalstown","Drumfea, Hollybrook, Co. Carlow, Ireland",52.661413,-6.8371316
"NEWTOWNGORE N S 1, Mullyaster, Newtowngore","Mullyaster, Newtown Gore, Co. Leitrim, Ireland",54.0366588,-7.6811459
"ROCKMOUNT MIXED N S, Rockmount, Miltown Malbay","Rockmount, Slievenalice, Miltown Malbay, Co. Clare, V95 NY93, Ireland",52.8687078,-9.3471603
"MONOGAY NATIONAL SCHOOL, Monagea, Newcastle West","Newcastlewest, Glebe, Newcastle West, Co. Limerick, Ireland",52.4176342,-9.0880938
"ST LAURENCES N S, Crookstown, Ballytore","Crookstown, Ballytore, Crookstown Upper, Athy, Co. Kildare, Ireland",53.0208269,-6.8047559
"RINEEN N S, Rineen, Miltown Malbay","Rinneen, Miltown Malbay, Co. Clare, Ireland",52.8907449,-9.3890249
"ST JOSEPHS PRIMARY SCHOOL, Murgasty Road, Tipperary Town","Murgasty Rd, Carrownreddy, Tipperary, Ireland",52.4793428,-8.162509
"BALSCADDEN N S, Balscadden, Ring Commons","Ring Commons, Co. Dublin, Ireland",53.6155292,-6.2317045
"BALLINADEE N S, Ballinadee, Bandon","Ballinadee Church of Ireland, Ballinadee, Bandon, Co. Cork, Ireland",51.7137862,-8.6271343
"BURROW N S, Howth Road, Sutton","Howth Rd, Sutton, Dublin 13, Ireland",53.3913143,-6.100234
"ST FRANCIS NS, Mullanalamphry, Barnesmore","Mullanalamphry, Co. Donegal, Ireland",54.6874178,-8.0218055
"KILLEENDUFF N S, Killeenduff, Easkey","Killeenduff National School, Killeenduff, Easky, Co. Sligo, Ireland",54.2747394,-8.9236917
"ST JAMES N S, Cappagh, Askeaton","Cappagh Castle, Ballingarrane, Askeaton, Co. Limerick, Ireland",52.5540599,-8.9287608
"KNOCKNAGOSHEL NATIONAL SCHOOL, Knocknagoshel, Tralee","Moyderwell, Cloon Beg, Tralee, Co. Kerry, Ireland",52.2681291,-9.6997039
"GLENMAQUIN NO 2 N S, Knockbrack, Letterkenny","Knockbrack, Letterkenny, Co. Donegal, Ireland",54.9124843,-7.6905796
"ST JOSEPHS BOYS N S, Terenure Road East, Dublin 6","Terenure Rd E, Terenure, Dublin 6, Ireland",53.3096938,-6.2820242
"POWERSCOURT N S, Cookstown Road, Enniskerry","Cookstown, Enniskerry, Co. Wicklow, A98 K7X6, Ireland",53.1885764,-6.1673643
"BALLYMACELLIGOTT 1 N S, Flemby, Ballymacelligott","Ballymacelligott, Forge Cross, Co. Kerry, Ireland",52.2463945,-9.5980417
"TULLASLEASE MIXED N S, Tullylease, Charleville","Tullylease, Co. Cork, Ireland",52.3144969,-8.9394165
"S N LEITIRGEIS, Lettergesh West, Renvyle","Lettergesh West, Co. Galway, Ireland",53.5859221,-9.9117513
"The Black Valley National School, Dunloe Upper, Beaufort","Black Valley, Beaufort, Killarney, Co. Kerry, Ireland",51.985706,-9.646616
"S N BHAILE AN CHROSAIGH, Ballyduff, Tralee","Lacka East, Ballyduff, Co. Kerry, Ireland",52.4545516,-9.6629052
"CLOGHOOLA MIXED N S, Cloughoulamore, Millstreet","Drominahilla, Millstreet, Co. Cork, Ireland",52.0601318,-9.0647121
"AGHATUBRID N S, Direen, Caherciveen","Kilcoman, Cahirciveen, Co. Kerry, Ireland",51.8911378,-10.2281816
"MARTINSTOWN N S, Martinstown, Kilmallock","Martinstown House, Martinstown, Kilmallock, Co. Limerick, Ireland",52.3974388,-8.4789981
"GRANAGH NATIONAL SCHOOL, Granagh, Kilmallock","Granagh House, Granagh, Kilmallock, Co. Limerick, Ireland",52.4593125,-8.7636093
"STANHOPE ST CONVENT, Manor Street, Stoneybatter","Manor St, Stoneybatter, Dublin 7, D07 DY60, Ireland",53.3526416,-6.282914
"CURRANES N S, Scoil Ide, Curranes","Currans, Cahereen East, Castleisland, Co. Kerry, Ireland",52.2300415,-9.4659594
"UPPER NEWTOWN N S, Newtown Upper, Faugheen","Newtown Manor, Carrickbeg, Carrick-On-Suir, Co. Tipperary, Ireland",52.3437928,-7.417962
"COOLICK NATIONAL SCHOOL, Coolick, Kilcummin","Kilcummin House, Coollick, Killarney, Co. Kerry, Ireland",52.1249321,-9.5055646
"MACROOM CONVENT N S, New Road, Macroom","Chapel Hill, Sleveen East, Macroom, Co. Cork, Ireland",51.903175,-8.956614
"LOUGHGUITANE N S, Dromickbane, Muckross","Dromickbane, Killarney, Co. Kerry, V93 RF96, Ireland",52.0253654,-9.4559396
"Scoil Bhríde, Scartlea, Muckross","Muckross, Scartlea, Killarney, Co. Kerry, Ireland",52.0392638,-9.4739618
"CREESLOUGH N S, Creeslough, Letterkenny","Letterkenny, Co. Donegal, Ireland",54.9558392,-7.7342787
"S N NAOMH TREASA, Killure, Ahascragh","Killure, Ahascragh West, Ahascragh, Co. Galway, Ireland",53.398941,-8.3344002
"LACKEN MXD N S, Lacken, Blessington","Lake Dr, Lackan, Co. Wicklow, W91 Y5V0, Ireland",53.1389345,-6.4903712
"S N MHUIRE NA TROCAIRE, Convent Road, Cahir","Townparks, Cahir, Co. Tipperary, Ireland",52.3745296,-7.925247
"MOIN AN BHEALAIGH N S, Valleymount, Blessington","Valleymount, Glenbride, Valleymount, Blessington, Co. Wicklow, Ireland",53.1063769,-6.52454
"CORLISS N S, Corliss, Killeshandra","Portaliff Glebe, Killashandra, Co. Cavan, Ireland",54.0138727,-7.5282313
"TASHINNY N S, Tashinny, Ballymahon","Taghshinny, Colehill, Co. Longford, Ireland",53.5918533,-7.6971425
"CROCHAN NAOFA N S, Caherdaniel, Killarney","Caherdaniel, Killarney, Co. Kerry, Ireland",51.7742233,-10.1108589
"S N ACHADH EOCHAILLE, Ahiohill, Enniskeane","Aghyohil Beg, Ahiohill, Co. Cork, Ireland",51.70567,-8.88384
"DRUMACRUTTIN N S, Drumacrutten, Dunraymond","Drumacrutten, Drumacruttan, Drumacruttin, Co. Monaghan, Ireland",54.1958353,-6.9406231
"SCOIL NAOMH MEARNOG, Strand Road, Portmarnock","Strand Rd, Burrow, Portmarnock, Co. Dublin, Ireland",53.4219778,-6.1352029
"SCOIL NUACHABHAIL, Gortatlea, Tralee","Cloonalour, Tralee, Co. Kerry, Ireland",52.2729968,-9.6994739
"CHARLEVILLE N S, Church View, Tullamore","Church Rd, Charleville, Tullamore, Co. Offaly, Ireland",53.2733025,-7.4814964
"SCOIL MHUIRE B&C, Cordal, Castleisland",.,.,.
"SCOIL MHUIRE, Boyher, Rockcorry","Corkeeran, Rockcorry, Co. Monaghan, Ireland",54.1178982,-7.0148382
"ALL SAINTS N S, Carysfort Avenue, Blackrock","Carysfort Ave, Stillorgan Park, Blackrock, Co. Dublin, Ireland",53.2892889,-6.1809426
"KILGARIFFE N S, Old Timoleague Road, Clonakilty","Kilgarriffe National School. Old Timoleague Road, Desert,, Desert, Clonakilty, Co. Cork, Ireland",51.6260801,-8.874351
"SCOIL EASA DHUIBHE, Asdee, Co. Kerry","Asdee, Astee East, Listowel, Co. Kerry, Ireland",52.5520897,-9.5396175
"FERMOY ADAIR N S, Greenhill, Fermoy","Green Hill, Rath-Healy, Fermoy, Co. Cork, P61 V603, Ireland",52.1427175,-8.2740579
"BALLYDREHID N S, Ballydrehid, Cahir","Ballydrehid, Cahir, Co. Tipperary, Ireland",52.4015639,-7.9631475
"COSBY N S, Main Street, Stradbally","Stradbally, Co. Laois, R32 VP9F, Ireland",53.0134405,-7.1454198
"ST BRENDANS NATIONAL SCHOOL, Wolfe Tone Square, Bantry","Harbour View, Town Lots, Bantry, Co. Cork, P75 KF96, Ireland",51.6814766,-9.4547775
"S N AN ARD MHOIR, Aird Mhoir, Cill Chiarain","Kilkieran, Co. Galway, Ireland",53.3227089,-9.7369713
"KILBARRON N S, Belleek Road, Ballyshannon","Kilbarron, NS, Co. Donegal, Ireland",54.5341212,-8.2298638
"CHAPELIZOD N S, Martin's Row, Chapelizod","Martin's Row, Chapelizod, Dublin, D20 PH32, Ireland",53.350269,-6.3450544
"BALLYMANA N S, Ballymana, Craughwell","Cahergal, Craughwell, Co. Galway, Ireland",53.1987809,-8.7108922
"KILBRIDE N S, Manor Kilbride, Blessington","Manor, Kilbride, Blessington, Co. Wicklow, Ireland",53.1982029,-6.4673638
"SOUTH ABBEY NS, Golf Links Road, Youghal","Golf Links Rd, Youghal-Lands, Youghal, Co. Cork, P36 HN47, Ireland",51.9478747,-7.8505461
"BALLINCARRIGA MXD N S, Ballincarriga, Dunmanway","Ballynacarriga, Dunmanway, Co. Cork, Ireland",51.7046192,-9.0365861
"CLONTIBRET N S, Aghnameal, Clontibret","R184, Aghnameal, Co. Monaghan, Ireland",54.1945676,-6.8502914
"SCOIL AN FHIRTEARAIGH, Baile an Fheirtéaraigh, Co. Chiarraí","Gortmore, Ballyferriter Village, Co. Kerry, Ireland",52.16615,-10.40599
"BOSTON N S, Boston, Tubber","Tubber Rd, Drumnadeevna, Gort, Co. Galway, Ireland",53.0311572,-8.9314536
"COBH N S, Bellevue, Cobh","Bellvue, Cobh, Co. Cork, P24 FE08, Ireland",51.8520051,-8.2871191
"Scoil Chorp Chríost, Knockanure, Moyvane","Gortdromagownagh, Knockanure, Co. Kerry, Ireland",52.46585,-9.37081
"BALLYOUGHTER N S, Ballyoughter, Gorey","Balloughter, Co. Wexford, Ireland",52.6150252,-6.3733236
"DRUMBARRAGH N S, Drumbaragh, Kells","Drumbaragh, Kells, Co. Meath, Ireland",53.7261886,-6.9407333
"PRESENTATION CONVENT NATIONAL SCHOOL, Kilkenny Street, Castlecomer","Scoil Mhuire Gan Smal, Kilkenny St, Glebe, Castlecomer, Co. Kilkenny, Ireland",52.8028483,-7.2099428
"CASTLEPOLLARD PAROC.N S, Pakenhamhall Road, Castlepollard","Pakenhamhall Rd, Co. Westmeath, Ireland",53.67951,-7.30431
"S N NA COILLE GLAISE, Kilglass, Ahascragh","Kilglass, Co. Galway, Ireland",53.4150181,-8.3497771
"TUBBER N S, Tubber, Co. Clare","H91 HY6K, Monreagh, Tubber, Co. Clare, H91 HY6K, Ireland",52.9905351,-8.8942661
"RATHKEALE N S 2, Church Street, Rathkeale","Rathkeale, Englishtenements, Rathkeale, Co. Limerick, Ireland",52.5187833,-8.9448259
"S N MHUIRE DE LOURDES, The Village, Lixnaw","Scoil Mhuire De Lourdes, Ballynageragh, Lixnaw, Co. Kerry, Ireland",52.4000795,-9.6168595
"THREEN N S, Trien, Castlerea","Trien, Castlerea, Co. Roscommon, Ireland",53.7323948,-8.5524374
"GARRYDOOLIS N S, Garrydoolis, Pallasgreen","National School, Garrydoolis, Limerick, Ireland",52.508177,-8.3359322
"KILBEG N S, Kilbeg, Thomastown","Thomastown, Carlanstown, Co. Meath, A82 T657, Ireland",53.7910127,-6.8032185
"S N NAOMH BRID, Duagh, Listowel","Duagh, Listowel, Co. Kerry, V31 CD90, Ireland",52.4133363,-9.3879723
"S N NAOMH PEADAR, Bolton Street, Drogheda","Bolton St, Drogheda, Co. Louth, Ireland",53.7172225,-6.3549033
"ST MARYS N S, Dunleckney, Muine Bheag","L3044, Dunleckny, Dunleckney, Co. Carlow, Ireland",52.7098138,-6.9484302
"S N NAOMH PADRAIG, Scrabbagh, Kilmore",.,.,.
"SEIR KIERANS N S, Clareen, Birr","Churchland, Clareen, Co. Offaly, R42 KA97, Ireland",53.0696668,-7.7858691
"KILLESHANDRA National School ( C of I), Main Street, Killeshandra","Main St, Portaliff Glebe, Killeshandra, Co. Cavan, Ireland",54.0133639,-7.5276518
"CLOHANBEG N S, Cree, Kilrush","Clohanbeg, Cree, Cloghaun More (East), Kilrush, Co. Clare, Ireland",52.7619701,-9.3901275
"NEWMARKET B N S, West End, Newmarket","Newmarket, Co. Cork, Ireland",52.2144873,-9.0037442
"CLOONBONNIF N S, Cloonbonniffe, Castlerea","Cloonbonniff, Cloonbonniffe, Co. Roscommon, F45 FX92, Ireland",53.7812718,-8.5822179
"SN CILL MHIC ABHAIDH, Kilmacabea, Leap","Advie, Grantown-on-Spey PH26 3LP, UK",57.394704,-3.4499949
"SN AN GHLEANNA, Glin South, Dingle","Glin South, Co. Kerry, Ireland",52.1752025,-10.2871726
"BURNFORT N S, Burnfort, Mallow","Burnfort, Mallow, Co. Cork, Ireland",52.0672808,-8.5978455
"SCOIL MHUIRE, An Tuairín, Béal an Daingin","Scoil Mhuire, Toureen, Bealadangan, Co. Galway, Ireland",53.3049655,-9.5947141
"DRUIMNE N S, Dromina, Charleville","Dromina, Co. Cork, Ireland",52.3140077,-8.8021272
"CARRICKERRY N S, Carrickerry, Athea","Carrigkerry National School, Knockaunnagun, Athea, Co. Limerick, Ireland",52.4924934,-9.1488334
"S N MUIRE GAN SMAL, Camus, Co. na Gaillimhe","Galway, Ireland",53.270668,-9.0567905
"BALLYGUILTENANE N S, Ballyguiltenane Upper, Glin","Ballygiltenan Upper, Ballyguiltenane, Co. Limerick, Ireland",52.53517,-9.27439
"KILMAGNER N S, Kilmagner, Fermoy","Kilmagner National School, Kilmagner, Fermoy, Co. Cork, Ireland",52.1245303,-8.1705176
"FAYTHE CONVENT, 99 The Faythe, Wexford","99 The Faythe, Maudlintown, Wexford, Y35 YT38, Ireland",52.3310718,-6.4541107
"SCOIL ATHA NA MBLATH, Kilcummin, Killarney","Killarney, Co. Kerry, Ireland",52.0599353,-9.5044265
"PORTROE N S, Nenagh, Co. Tipperary","Lisheentyrone, Portroe, Co. Tipperary, Ireland",52.8820423,-8.3539647
"BRITTAS BAY MXD N S, Ballynacarrig, Britta's Bay","Ballynacarrig, Ballinacarrig, Co. Wicklow, Ireland",52.9015603,-6.050578
"S N MHUIRE, Turlach Beag, Rosmuc","Turloughbeg, Co. Galway, Ireland",53.3397736,-9.629967
"Sacred Heart National School, Caim, Caim, Enniscorthy","Caime, Caim, Enniscorthy, Co. Wexford, Ireland",52.5121081,-6.6796887
"GURTAGARRY N S, Gortagarry, Toomevara","Toomevara Church of Ireland, Church St, Blakefield, Nenagh, Co. Tipperary, Ireland",52.8207157,-7.9788458
"FAHA NATIONAL SCHOOL, Faha, Killarney","Faha House, Faha, Killarney, Co. Kerry, Ireland",52.1060983,-9.6418135
"BALLYCONELL CENTRAL N S, Church Street, Ballyconnell","Church St, Doon, Ballyconnell, Co. Cavan, Ireland",54.1173001,-7.5863074
"SCOIL BHREANAINN, Portmagee, Killarney","Portmagee, Co. Kerry, Ireland",51.8846627,-10.3684657
"MAHOONAGH N S, Main Street, Castlemahon","Mahoonagh National School, Main St, Mahoonagh More, Castlemahon, Co. Limerick, Ireland",52.4309324,-9.0095842
"LISNAMROCK N S, Coalbrook, Thurles","Curraheenduff, Co. Tipperary, E41 C858, Ireland",52.6118759,-7.5864966
"LISMOIL N S, Ballyline, Curraghboy","Liscam, Curraghboy, Co. Roscommon, Ireland",53.4846873,-8.1119678
"SLIEVEARDAGH N S, Kyleballygalvan, The Commons","Commons, Thurles, Co. Tipperary, Ireland",52.6250667,-7.5445816
"Shandrum National School, Newtownshandrum, Charleville","Newtownshandrum, Newtown South, Charleville, Co. Cork, Ireland",52.3454633,-8.767827
"CAVAN 1 N S, Farnham Street, Cavan","Farnham St, Abbeyland, Cavan, Ireland",53.9902405,-7.3628172
"ST PATRICKS N SCHOOL, Millbourne Avenue, Drumcondra","Millbourne Ave, Drumcondra, Dublin, Ireland",53.3701693,-6.2582575
"DROMAILI S N, Drumelis, Cavan","Drumelis, Co. Cavan, Ireland",54.0019174,-7.3892112
"CITY QUAY NS, City Quay, Gloucester Street South","Gloucester St S, Dublin Docklands, Dublin 2, Ireland",53.3466957,-6.2509863
"ST ANDREWS N S, Church Road, Malahide","Church Rd, Malahide, Co. Dublin, Ireland",53.4489278,-6.1529895
"ROSEGREEN N S, Rosegreen, Cashel","Rosegreen Post Office, Rosegreen, Cashel, Co. Tipperary, Ireland",52.4679247,-7.8313865
"WHITECHURCH NAT SCHOOL, Whitechurch Road, Rathfarnham","Whitechurch National School, Whitechurch Rd, Rathfarnham, Dublin 16, Ireland",53.2719359,-6.2822709
"NUNS CROSS N S, Nun's Cross, Ashford","Ashford, Co. Wicklow, Ireland",53.0178729,-6.1258971
"S N NAOMH BRID, Cloonluane, Renvyle","Renvyle, Tully, Co. Galway, Ireland",53.5951968,-9.957941
"BANSHA N S, Bansha, Kilkee","Bansha National School, Ballinlough East, Bansha, Co. Tipperary, Ireland",52.4476261,-8.0656106
"BEHEYMORE N S, Behymore, Ballina","Behy Rd, Behy More, Ballina, Co. Mayo, Ireland",54.1163187,-9.0956112
"CASTLEGREGORY MXD N S, Strand Road, Castlegregory","Castlegregory, Co. Kerry, Ireland",52.2588697,-10.0165495
"DOONBEG N S, Killard Road, Doonbeg","Doonbeg, Co. Clare, V15 HW73, Ireland",52.7314324,-9.528819
"S N CNOCH A DEAGA, Knockadea, Ballylanders","Knockadea, Co. Limerick, Ireland",52.3268071,-8.3309622
"CLOONDAFF N S, Cloondaff, Glenhest","Ballyteige, Co. Mayo, F28 Y261, Ireland",53.9395065,-9.4407443
"S N NEILL MOR, Killybegs, Co. Donegal","Drumbeagh, Co. Donegal, Ireland",54.6386696,-8.4405239
"CLOCHAR NA TOIRBHIRTE, Greenside South, Carrick-on-Suir","Greenside South, Knocknaconnery, Carrick-On-Suir, Co. Tipperary, Ireland",52.347987,-7.411509
"RATHMICHAEL N S, Rathmichael, Shankill","Stonebridge Rd, Shankill, Dublin, Ireland",53.2361462,-6.1277496
"ST DAVIDS NS, Pipers Hill Educational Campus, Kilcullen Road","Pipers Hill Educational Campus, Kilcullen Rd, Killashee, Naas, Co. Kildare, W91 AE26, Ireland",53.1958432,-6.672531
"SCOIL MHUIRE, Gilford Road, Sandymount","Gilford Rd, Sandymount, Co. Dublin, D04 DC04, Ireland",53.3283153,-6.2111718
"S N IOSEPH, Derryclogh Lower, Drinagh","Derryclogh Lower, Co. Cork, Ireland",51.6347711,-9.2010249
"BALLINLOUGH N S, Ballinlough, Co. Roscommon","Ballinlough, Co. Roscommon, F45 RY86, Ireland",53.7412503,-8.6355799
"COOLCAPPA N S, Ardagh, Co. Limerick","Coolcappagh, Ardagh, Co. Limerick, Ireland",52.5278377,-9.0243821
"CARRICKBEG N S, Crehana, Carrick-Beg","Crehanagh South, Carrick Beg, Carrick on Suir, Co. Waterford, Ireland",52.3315887,-7.4038621
"SCOIL CHÓCA NAOFA, Church Street, Kilcock","2 Church St, Commons East, Kilcock, Co. Kildare, W23 Y566, Ireland",53.4019522,-6.6678212
"SCOIL MHUIRE NS, Moylagh, Oldcastle","Mullagh, Oldcastle, Co. Meath, Ireland",53.7396677,-7.150937
"CONVENT OF MERCY, Whitemill Road, Wexford","Kennedy Park, Slippery Green, Wexford, Ireland",52.3298119,-6.4725315
"BODYKE N S, Coolreagh, Bodyke","Coolready, Bodyke, Co. Clare, Ireland",52.8816758,-8.6065768
"WHITEGATE MIXED N S, Corkbeg, Whitegate","Mosestown, Whitegate, Co. Cork, Ireland",51.8234779,-8.2355132
"S N RONAIN, Castlesampson, Bealnamulla","Castlesampson, Athlone, Co. Roscommon, Ireland",53.4127462,-8.0971109
"OUR LADY OF GOOD COUNSEL GNS, Abbey Road, Waterford","Ferrybank, Waterford, Ireland",52.2655751,-7.1017349
"ST LUKES N S DOUGLAS, Churchyard Lane, Douglas","Churchyard Ln, Douglas, Cork, T12 A395, Ireland",51.8738833,-8.4364725
"ST ANDREWS N S, St Edmundsbury, Lucan Road","Lucan Rd, St. Edmondsbury, Lucan, Co. Dublin, Ireland",53.3603492,-6.4356329
"LISCARROL N S, Liscarroll, Co. Cork","Liscarroll National School, Liscarroll, Co. Cork, Ireland",52.258985,-8.8063026
"ST JOHN THE BAPTIST N S, The Park, Midleton","Connolly St, Midleton, Co. Cork, Ireland",51.9160173,-8.1687871
"OUR LADY OF MERCY NS, Jim Brunnock Road, Kells","Jim Brunnock Road, Gardenrath, Kells, Co. Meath, A82 X571, Ireland",53.7250968,-6.8696779
"SCOIL NAOMH FIACHRA, Illistrin, Letterkenny","Ellistrin Little, Co. Donegal, Ireland",54.9956825,-7.7313729
"S N NAOMH ANTOINE, Kill, Kingstown","Kingstown, St Vincent and the Grenadines",13.1600249,-61.2248157
"BILLIS N S, New Inns, Ballyjamesduff","New Inn, Billis, Ballyjamesduff, Co. Cavan, Ireland",53.8868399,-7.1453448
"S N NAOMH PADRAIG, An Chloc Breac, An Fhairche","Scoil Náisúnta Naomh Pádraig, Cloonbur, Clonbur, Co. Galway, Ireland",53.54495,-9.3641499
"REAR N S, Rearcross, Newport","Shanballyedmond, Rear Cross, Co. Tipperary, Ireland",52.6863932,-8.2375229
"SCOIL BHRÍDE, Glen, Edgeworthstown","Glen, Edgeworthstown, Co. Longford, N39 TD42, Ireland",53.668767,-7.619686
"S N CEATHRU NA LAITHIGH, Brownsgrove, Tuam","Tuam, Co. Galway, Ireland",53.5141156,-8.8565177
"St Joseph's National School, Ballure, Culleens","St.Joseph's, N.S, Ballyogan, Culleens, Co. Sligo, F26 FY07, Ireland",54.2131456,-8.9916444
"S N AN AIRD, Ardfield, Clonakilty","Ardfield National School, Carhoo, Clonakilty, Co. Cork, Ireland",51.5711456,-8.9104894
"TEMPLEBRADY N S, Church Road, Crosshaven","Crosshaven, Templebreedy, Co. Cork, Ireland",51.79826,-8.28992
"CORBALLA N S, Corballa, Via Ballina","Corbally, Corballa, Co. Mayo, Ireland",54.1644096,-9.0770145
"MEELICKMORE N S, Meelick More, Claremorris","Meelickmore, Claremorris, Co. Mayo, F12 EK20, Ireland",53.7033475,-8.9461581
"PRESENTATION PRIMARY SCHOOL, Convent Road, Clonmel","Presentation Primary School, Convent Rd, Greenan, Clonmel, Co. Waterford, Ireland",52.3483708,-7.7180853
"St. John's National School, Drogheda Street, Monasterevin","Monasterevin, Co. Kildare, W34 K585, Ireland",53.1405722,-7.063063
"S N NAOMH ANTAINE, Beechwood Park, Ballinlough","Beechwood Park, Ballinlough, Cork, T12 E400, Ireland",51.8879917,-8.447927
"S N NAOMH PADRAIG, Currabaggan West, Knockmore","Currabaggan West, Corraveggaun West, Knockmore, Co. Mayo, Ireland",54.043438,-9.177771
"RUSH HALL MIXED N S, Pike-of-Rushall, Portloaise","Portlaoise, Co. Laois, Ireland",53.0328123,-7.2987933
"S N OIR CHEANN, Urhan, Eyeries","Eyeries, Co. Cork, Ireland",51.6951916,-9.9636184
"GOGGINSHILL N S, Goggins Hill, Ballinhassig","Ballyleigh, Gogginshill, Co. Cork, Ireland",51.8234798,-8.5783588
"WALTERSTOWN N S, Walterstown, Cobh","Walterstown National School, Walterstown, Cobh, Co. Cork, Ireland",51.8668386,-8.2362555
"CANOVEE MIXED N S, Carrigadrohid, Macroom","Canovee National School, Cooldrum, Carrigadrohid, Co. Cork, Ireland",51.8892904,-8.8561883
"ST CRONANS MIXED N S, Lusmagh, Banagher","Kylebeg, Banagher, Co. Offaly, Ireland",53.1726657,-8.0196366
"DARLEY N S, Monaghan Road, Cootehill","84-90 Bridge St, Munnilly, Cootehill, Co. Cavan, H16 P990, Ireland",54.075721,-7.0865368
"S N INIS MEADHOIN, Inis Meáin, Oileann Árainn",.,.,.
"SHINRONE MIXED N S, Shinrone, Birr","Roscrea Rd, Shinrone, Birr, Co. Offaly, Ireland",52.9851285,-7.9231327
"S N MUIRE NA NAINGEAL, Sisters of Charity, Mary Street","Mary St, Oldbridge, Clonmel, Co. Tipperary, Ireland",52.3544542,-7.7052303
"S N NA HAILLE, The Neale, Ballinrobe","Nealepark, The Neale, Co. Mayo, Ireland",53.57378,-9.22527
"CLOGHER MXD N S, Ballydwyer East, Ballymecelligott","Ballydwyer East, Ballydwyer, Co. Kerry, Ireland",52.25507,-9.57912
"SWORDS BOROUGH N S, Church Road, Swords","The Old Borough National School, Church Rd, Swords Glebe, Swords, Co. Dublin, Ireland",53.4573267,-6.2232707
"S N NAOMH PADRAIG, Knocknasnaa, Abbeyfeale","Knocknasna, Abbeyfeale West, Abbeyfeale, Co. Limerick, Ireland",52.3849983,-9.3013897
"ST BRENDANS MONASTERY, Moorpark Street, Birr","Moorpark St, Drumbane, Birr, Co. Offaly, Ireland",53.0907869,-7.9113785
"S N EACHLEIME, Eachléim, Fód Dubh","Aghleam, Co. Mayo, Ireland",54.1182179,-10.1015402
"CURRIGLASS NS, Blackpool, Curraglass","Blackpool, Curraglass, Co. Cork, P51 AX94, Ireland",52.0943718,-8.0490424
"UNION HALL MIXED N S, Union Hall, Skibbereen","Union Hall National School, Clontaff, Unionhall, Co. Cork, Ireland",51.5533918,-9.1441097
"RUSHEEN NS, Rusheen, Coachford","Rusheen, Co. Cork, Ireland",51.934067,-8.8996275
"DONAGHMORE N S, Donoughmore, Donard","1, Davidstown, Donoughmore, Co. Wicklow, Ireland",52.9904826,-6.6270231
"S N GLEANN NA HULADH, Cloughleafin, Mitchelstown","Cloghleafin, Ballylough, Co. Cork, Ireland",52.2548477,-8.3538421
"BALTYDANIEL N S, Newtwopothouse, Mallow","Mallow County Hospital, Baltydaniel East, New Twopothouse, Co. Cork, Ireland",52.185986,-8.6702517
"GARDINER STREET CONVENT, Gardiner Street, Belvedere Court","6 Belvedere Court, Mountjoy, Dublin, Co. Dublin City, Ireland",53.357882,-6.25894
"TIMOLEAGUE N S, School Road, Timoleague","Castle Lower, Timoleague, Co. Cork, Ireland",51.6424535,-8.7641889
"CRAGGAGH N S, Craggagh, Balla","Craggagh National School, Derryvohy, Balla, Co. Mayo, Ireland",53.8179141,-9.0775984
"GREENMOUNT MONASTERY NS, Green Street, Greenmount","Green St, Greenmount, The Lough, Cork, T12 HE14, Ireland",51.8911922,-8.4812239
"SLIEVERUE MIXED N S, Slieverue, Co. Kilkenny","Slieverue, Rathpatrick, via Waterford, Co. Kilkenny, X91 YA26, Ireland",52.2834423,-7.0667515
"GILSON NATIONAL SCHOOL, Chapel Street, Oldcastle","Church St, Knockmacoony, Oldcastle, Co. Meath, Ireland",53.7690196,-7.1587188
"S N EANNA, Roundstone, Co. Galway","Roundstone, Co. Galway, Ireland",53.3964208,-9.9190184
"KILBARRY N S, Kilbarry, Macroom","Kilbarry National School, Coolnacrannagh, Macroom, Co. Cork, Ireland",51.8621983,-9.0605709
"ST SAVIOURS N S, Station Road, Rathdrum","Rathdrum, Balleese Lower, Co. Wicklow, Ireland",52.9304749,-6.2283975
"S N URSULA NAOFA, Inner Ring Road, Waterford","Waterford, Ireland",52.2593197,-7.1100702
"CARN N S, Gurteen, Ballymote","Gurteen, Rathmadder, Ballymote, Co. Sligo, Ireland",53.9968262,-8.528307
"CLONMORE N S, Clonmore, Templemore","Ballysorrell Little, Clonmore Village, Co. Tipperary, E41 XW82, Ireland",52.8299157,-7.7657793
"St Patrick's National School, Church Road, Greystones","Church Rd, Rathdown Lower, Greystones, Co. Wicklow, Ireland",53.1493427,-6.0691875
"SN INBHEAR, Inver, Barnatra","Scoil Inbhear, Inver, Barnatra, Co. Mayo, Ireland",54.2511986,-9.8649436
"S N ROS DUMHACH, Ross Dumhach, Béal an Átha","Rosdoagh, Ross Port, Co. Mayo, Ireland",54.2853252,-9.796802
"LURGA N S, Lurga, Gort","3 Sráid an Droichid, Lurga, An Gort, Co. Contae na Gaillimhe, H91 NPP0, Ireland",53.0123571,-8.8669459
"COOLARD MXD N S, Shronowen, Coolard","Coolard, Co. Kerry, Ireland",52.4829675,-9.5395286
"ARDAGH BOYS SENIOR NATIONAL SCHOOL, Ardagh, Rosscarbery","Townlands, Rosscarbery, Co. Cork, Ireland",51.5803726,-9.0296174
"CRUMLIN N S, Crumlin, Ballyglunin","Crumlin, Co. Galway, Ireland",53.3966943,-8.7901366
"GLENBROHANE N S, Glenbrohane, Garryspillane","Glenbrohane, Kilmallock, Co. Limerick, Ireland",52.3870712,-8.3876924
"PALLASKENRY N S, Pallas, Pallaskenry","Tobermurry, Pallaskenry, Co. Limerick, Ireland",52.6392744,-8.8675225
"COOLMEEN N S, Coolmeen, Kilmurray McMahon","NA, Coolmeen, Kilmurry McMahon, Co. Clare, V15 KR50, Ireland",52.6599457,-9.212848
"CLOGHEEN MXD N S, Kerry Pike, Co. Cork","Carrigrohane, Co. Cork, Ireland",51.9085415,-8.5622491
"ST. JOHNS NATIONAL SCHOOL, Battery Road, Longford","Battery Rd, Aughadegnan, Longford, Ireland",53.7399741,-7.8022222
"RUSHNACAHARA N S, Rushnachara, Durrus","Reenacappul, Rushnachara, Co. Cork, Ireland",51.60466,-9.62386
"KILTEGAN N S, Kiltegan, Co. Wicklow","Kiltegan, Co. Wicklow, Ireland",52.9062271,-6.6042155
"KILADOOLEY MIXED N S, Killadooley, Borris-in-Ossory","Killasmeestia, Killadooley, Co. Laois, R32 A726, Ireland",52.892768,-7.6455441
"SCOIL AN FHAILL MOR, Foilduff, Caherciveen","Cahersiveen, Cahirciveen, Co. Kerry, Ireland",51.948286,-10.2238079
"SN SAILEARNA, Indreabhán, Co. na Gaillimhe","Aille, Co. Galway, Ireland",53.2458275,-9.3821231
"NAOMH GUASACHTA N S, Bunlahy, Ballinalee","Naomh Guasachta National School, Bunlahy, Ballinalee, Co. Longford, Ireland",53.7927669,-7.5846146
"MARSHALSTOWN N S, Marshalstown, Enniscorthy","Marshalstown, Co. Wexford, Y21 E954, Ireland",52.5478747,-6.6035384
"S N CNOC AN SAMHRAIDH, Crannagh, Summerhill","78 Portstewart Rd, Coleraine BT52 1SB, UK",55.150455,-6.686695
"KILDARE PLACE N S, 92/96 Rathmines Road Upper, Dublin 6","96 Rathmines Rd Upper, Rathmines, Dublin 6, Ireland",53.3185555,-6.2634534
"S N RONAIN NAOFA, Cloonloo, Via Boyle","Cloonloogh, Cloonloo, Co. Sligo, Ireland",53.97161,-8.40691
"BUNSCOIL NAOMH CHUANA, Kilcoona, Headford","Kilcoona, Headford, Co. Galway, H91 FX95, Ireland",53.4422564,-9.0426606
"FLOWERFIELD N S, Trim Road, Navan","Flowerfield National School, Trim Rd, Dillonsland, Navan, Co. Meath, Ireland",53.6456682,-6.6866343
"SAINT MICHAELS N S, Church Road, Ballina","Carrowcushlaun West, Ballina, Co. Mayo, Ireland",54.1078528,-9.1533042
"ST COLUMBAS MXD N S, Cloonagh, Dring","Dring, Co. Longford, Ireland",53.8175673,-7.5374095
"S N CEATHRU AN CHLOCHAR, Cloonee, Ballinrobe","Friarsquarter West, Ballinrobe, Co. Mayo, Ireland",53.6237338,-9.2211143
"SCOIL REALT NA MARA, Cromane, Killorglin","Lonart, Cromane, Co. Kerry, Ireland",52.1073899,-9.8743427
"SCOIL MHUIRE B, Killorglin, Co. Kerry","Castleconway, Killorglin, Co. Kerry, Ireland",52.1083268,-9.7876405
"ST MICHAELS, 11 Barrington Street, Limerick","11 Barrington St, Limerick, Co. Limerick, Ireland",52.6579963,-8.6301212
"ST PATRICKS N S, Ballyroebuck, Bunclody","Ballyroebuck, Bunclody, Co. Wexford, Ireland",52.6506838,-6.5514501
"DOONAHA N S, Doonaha West, Kilkee","Doonaha West, Kilkee, Co. Clare, Ireland",52.62315,-9.6477357
"DOUGLAS NATIONAL SCHOOL, Douglas, Killorglin","Unnamed Road, Douglas, Douglas, Co. Kerry, Ireland",52.1149626,-9.8394383
"UGHTYNEILL N S, Ughtyneill, Moynalty","Ughtyneill, Kells, Co. Meath, Ireland",53.8260102,-6.8790935
"CLOONLYON N S, Cloonlyon, Charlestown","Cloonlyon, Charlestown, Co. Mayo, Ireland",53.930644,-8.8383224
"S N TAMHNIGHAN FHEADHA, Tavneena, Charlestown",.,.,.
"S N COILM CILLE, Ros a'Mhíl, Baile na hAbhann","Rossaveel, Baile na, Co. Galway, Ireland",53.2736962,-9.5403958
"S N BHRIDE, Lackagh Beg, Turloughmore","Lackagh, Turloughmore, Co. Galway, Ireland",53.3688046,-8.8891424
"S N NAOMH SEOSAMH, Corroy, Ballymurray","Ballymurray, Co. Roscommon, Ireland",53.6005098,-8.1291146
"INCHIGEELA N S, Carrighleigh, Inchigeelagh","Inchigeelagh, Co. Cork, Ireland",51.8424464,-9.1264323
"ST JOSEPHS CONVENT, Lower Knockane Road, Newcastle West","Knockane Rd, Knockane, Co. Limerick, Ireland",52.4395742,-9.0674736
"S N CIANOG NAOFA, Timahoe, Coill Dubh","Blackwood, Co. Kildare, Ireland",53.2931573,-6.8185844
"OUR LADY OF MERCY N S, Carrigahilla, Stradbally","Carrickahilla, Stradbally, Co. Waterford, Ireland",52.1378868,-7.4671738
"KILFINANE CONVENT PRIMARY SCHOOL, Castle Street, Kilfinane","Kilfinnane, Kilfinane, Co. Limerick, Ireland",52.3586898,-8.4672787
"ST JOSEPHS CONVENT N S, Smith's Road, Charleville","Saint Joseph's Infant School, Smiths Ln, Rathgoggan Middle, Charleville, Co. Cork, Ireland",52.3546235,-8.685934
"S N LIOS A CUILL M, Corracoggil North, Lisacul","Corracoggil North, Lisacul, Co. Roscommon, Ireland",53.8592062,-8.6367412
"KILMOVEE IN S, Ballyglass, Kilmovee","Kilmovee, Co. Mayo, Ireland",53.8883461,-8.6882088
"S N AN DROMA MHOIR, Dromore, Bantry","Bantry, Co. Cork, Ireland",51.6800803,-9.4525763
"ST BRIDGETS MONASTERY BOYS SENIOR SCHOOL, Muinebheag, Co. Carlow","Saint Brigids De La Salle School, Stationhouse Rd, Kilcarrig, Muine Bheag, Co. Carlow, Ireland",52.7002488,-6.9547026
"CLARA CONVENT N S, Kilbeggan Road, Clara","Clara, Kilcoursey, Clara, Co. Offaly, Ireland",53.3421242,-7.603988
"SCOIL DHAIRBHRE, Cruary, Clonakilty","Clonakilty, Co. Cork, Ireland",51.6203379,-8.9055104
"S N NAOMH COLM CILLE, The Quay, Westport","The Quay, Cloonmonad, Westport, Co. Mayo, Ireland",53.7980675,-9.5503204
"KNOCKANES MXD N S, Knockanes, Headford","Knockanes, Headford, Co. Kerry, Ireland",52.0335128,-9.3777531
"ST JOSEPHS N S, Derrydorragh, Clonken","Derrywash, Derrydorragh, Castlebar, Co. Mayo, Ireland",53.8216505,-9.3346277
"KILBERRY N S, Kilberry, Athy","Kilberry, Athy, Co. Kildare, Ireland",53.0507557,-7.0224208
"PADDOCK N S, Paddock, Mountrath","Paddock, Mountrath, Co. Laois, Ireland",53.0229542,-7.4985084
"ST COLUMBAS N.S., Ballyvaum, Inishturk","Bellavaum, Co. Mayo, Ireland",53.7019853,-10.1026716
"HIGH ST MIXED N S, Highstreet, Belmont","High St, Belmont VIC 3216, Australia",-38.1773299,144.3403023
"Taunagh National School, Riverstown, Co. Sligo","Riverstown, Cuiltylough, Riverstown, Co. Sligo, Ireland",54.130045,-8.397787
"ST ANNES CON N S, The Square, Castlerea","Castlereagh, Castlerea, Co. Roscommon, F45 WN59, Ireland",53.766325,-8.4864534
"ST PATRICKS MXD N S, Loch Gowna, Co. Cavan","Loch Gowna, Co. Cavan, Ireland",53.8737049,-7.5336731
"HOLY FAMILY NATIONAL SCHOOL, Rathcoole, Co. Dublin","Rathcoole, Co. Dublin, Ireland",53.2801699,-6.4767635
"SN GLEANN A CHAISIL, Bunnahowen, Ballina","Ballina Rd, Glencastle, Bunnahowen, Co. Mayo, Ireland",54.1956429,-9.9090142
"ST KEVIN'S BALLYCOOG NS, Ballycoog, Avoca","Ballintemple, Ballycoog, Co. Wicklow, Ireland",52.8279334,-6.2643155
"CORMAIC NFA, Killeennashask, Garranard",.,.,.
"CLOUGHDUV N S, Cloughduv, Crookstown","Cloughduv House, Coolmucky, Crookstown, Co. Cork, Ireland",51.8463885,-8.7887842
"CASTLEROCK N S, Drummartin, Aclare","Drummartin, Co. Sligo, Ireland",54.0619725,-8.8591747
"MONEYSTOWN N S, Moneystown, Roundwood Bray","Moneystown, Parkmore, Bray, Co. Wicklow, Ireland",53.0035937,-6.1991311
"CLOVER HILL N S, Lisagallan, Cloverhill","Cloverhill National School, Cloverhill, Co. Roscommon, Ireland",53.6529485,-8.2519894
"FAIRGREEN N S, Railway Road, Belturbet","Railway Rd, Corporation Lands, Belturbet, Co. Cavan, Ireland",54.0989352,-7.4433239
"TIRELTON N S MXD, Tarelton, Macroom","na, Tirelton, Macroom, Co. Cork, P12 HR24, Ireland",51.8372603,-8.9904989
"GLANBRIAN N S, Gallinastraw, Glenbrien","Glenbrien National School, Ballynastraw, Ballinastraw, Co. Wexford, Ireland",52.4647155,-6.5003913
"ST PATRICKS NS, Clare Island, Westport","Kille, Clare Island, Kill, Westport, Co. Mayo, F28 F516, Ireland",53.793183,-9.9898446
"St. John's National School,, Ballinalee Road, Edgeworthstown","Edgeworthstown, Co. Longford, Ireland",53.6956862,-7.608493
"FERMOYLE MIXED N S, Fermoyle, Lanesboro","Fermoyle National School, Formoyle (Newcomen), Lanesborough, Co. Longford, Ireland",53.6246602,-7.9933557
"ST PATRICKS N S, Morristown, Newbridge","Morristown Rd, Moorfield, Newbridge, Co. Kildare, Ireland",53.1779536,-6.8140395
"COURT N S, Court, Gorey","Court, Gorey, Co. Wexford, Ireland",52.55335,-6.3417672
"SCOIL BHRIDE, Stillbrook, Mountrath","Stillbrook, Mountrath, Co. Laois, Ireland",53.0002948,-7.4763032
"SCOIL BRIDE, Athgarvan, The Curragh","Curragh Cl, Blackrath, Newbridge, Co. Kildare, Ireland",53.1492284,-6.7983558
"SCOIL MHUIRE, Castle Road, Oranmore","Scoil Mhuire, Castle Rd, Oran More, Oranmore, Co. Galway, Ireland",53.2673363,-8.9318252
"SCOIL BHRIDE, Crossmahon, Bandon","Knocknagarrane, Cross Mahon, Co. Cork, Ireland",51.7270742,-8.7699329
"S N PADRAIG NFA FANOIR, Fanore, Ballyvaughan","Fanore Beg, Fanore, Co. Clare, Ireland",53.10493,-9.29554
"S N AN TSRAITH, Bunnahowen, Ballina","Carrowkeel, Bunnahowen, Co. Mayo, Ireland",54.1919099,-9.9054109
"SN AN TRIAN LAIR, Midfield, Swinford","Treanlaur, Midfield, Co. Mayo, Ireland",53.897116,-8.927196
"KNOCKRAHA N S, Knockraha, Co. Cork","Gogganstown, Knockraha, Co. Cork, Ireland",51.9582892,-8.3396802
"Scoil Mhuire Gan Smál, New Inn, Co. Tipperary","Loughkent East, Newinn, Co. Tipperary, Ireland",52.4409429,-7.8837206
"SN TUAIRINI, Tuairíní, Maigh Cuilinn","Tooreeny National School, Tooreeny, Moycullen, Co. Galway, Ireland",53.3068537,-9.1530849
"BALLYEA MIXED N S, Ballyea, Darragh","Ballyea, Tiermaclane, Co. Clare, Ireland",52.7839167,-9.0296878
"S N BEAL ATHA NA HEIN, Ballyhean, Castlebar","Castlebar, Co. Mayo, Ireland",53.8550014,-9.2879257
"SCOIL MHUIRE, Lucan Road, Lucan","Lucan Rd, St. Edmondsbury, Lucan, Co. Dublin, K78 DK18, Ireland",53.3590634,-6.4398652
"Bunscoil Rinn an Chabhlaigh, Rushbrooke, Cobh","Norwood Grove, Rushbrooke, Cobh, Co. Cork, Ireland",51.8499374,-8.3146027
"S N GALLBHAILE, Galbally, Co. Tipperary","Galbally, Co. Limerick, Ireland",52.4012269,-8.2961252
"S N ATH NA LIONTA, Mourneabbey, Mallow","Mallow, Garrynagearagh, Mallow, Co. Cork, Ireland",52.0688714,-8.6379625
"CLOONFOUR N S, Cloonfour, Rooskey","Roosky, Co. Roscommon, Ireland",53.8327737,-7.9215349
"MOUNT PLEASANT N S, Ballyglass, Claremorris","Slishmeen, Co. Mayo, F12 YX45, Ireland",53.7461052,-9.1771175
"S N MUIRE LOURDES, Mill Street, Tullow","Mill St, Templeowen, Tullow, Co. Carlow, Ireland",52.8008302,-6.7344061
"SCOIL MHUIRE LOURDES, Ballea Road, Carrigaline","Ballea Rd, Carrigaline West, Carrigaline, Co. Cork, Ireland",51.819619,-8.397268
"SCOIL MHUIRE, Moyderwell, Tralee","Moyderwell, Cloon Beg, Tralee, Co. Kerry, Ireland",52.2681291,-9.6997039
"MURHUR N S, Listowel Road, Moyvane","Church of the Assumption, Listowel Rd, Cloonbrane, Newtown Sandes, Co. Kerry, Ireland",52.5007826,-9.3720564
"DERRINACAHARA N S, Derrinacahara, Dunmanway","Derrinacahara, Dunmanway, Co. Cork, Ireland",51.7529551,-9.1765797
"S N FAITCHE, Toorgarve, Fahy","Fahy, Co. Mayo, Ireland",53.8501218,-9.4920782
"S N CHILL COINNIGH, Kilkenny, Glenties","Kilkenny, Ireland",52.6541454,-7.2447879
"DRUMRANEY MIXED N S, Drumraney, Athlone","Newgrove, Co. Westmeath, Ireland",53.4765767,-7.7486192
"ST ANDREWS N S, Newcourt Road, Bray","Newcourt Rd, Newcourt, Bray, Co. Wicklow, Ireland",53.1896749,-6.1013355
"ST COLUMBAS N S, Dublin Road, Tullow",.,.,.
"PRESENTATION PRIMARY SCHOOL, Warrenmount, Blackpitts","25-26 Blackpitts, Merchants Quay, Dublin, D08 XR62, Ireland",53.3357624,-6.2754101
"PRESENTATION PRIMARY SCHOOL, Terenure Road West, Dublin 6W","Terenure Rd W, Terenure, Dublin 6W, Co. Dublin, Ireland",53.3103186,-6.2876602
"SCOIL EOIN, Balloonagh, Tralee","Balloonagh, Tralee, Co. Kerry, Ireland",52.2723865,-9.7101422
"S N MUIRE, Letterfrack, Co. Galway","Letterfrack, Co. Galway, Ireland",53.5536034,-9.9482317
"KILNAMONA N S, Kilnamona, Ennis","Mweelagarraun, Kilnamona, Co. Clare, V95 XY88, Ireland",52.867855,-9.0785584
"ANNALITTEN N S, Annalitten, Castleblayeny","Monygorbet, Co. Monaghan, Ireland",54.0830401,-6.7032967
"BALLYDUFF N S, Ballyduff West, Kilmeaden","Ballyduff National School, Ballyduff West, Co. Waterford, Ireland",52.2324403,-7.2689852
"EMO MIXED N S, Emo, Portlaoise","Emo, Portlaoise, Co. Laois, Ireland",53.1004132,-7.2087371
"CASTLEMARTYR N S, Gortnahomnamore, Castlemartyr","National School, Gortnahomna More, Castlemartyr, Co. Cork, P25 FK64, Ireland",51.91129,-8.0516519
"ST LUKES MXD N S, O' Mahony's Avenue, Cork","Ardview House, 2 Mahony's Ave, Montenotte, Cork, Co. Cork, T23 A0W7, Ireland",51.903919,-8.4562779
"ANNADUFF MXD N S, Antfield, Aughamore","Saint Ann's Church of Ireland, Annaduff, Carrick On Shannon, Co. Leitrim, Ireland",53.9025064,-7.9545566
"BEACAN MIXED N S, Bekan, Claremorris","Bekan National School, Bekan, Claremorris, Co. Mayo, Ireland",53.7586015,-8.8497217
"DUNMANWAY CONVENT GIRLS SENIOR NATIONAL SCHOOL, Dunmanway, Co. Cork","Dunmanway North, Co. Cork, Ireland",51.7237792,-9.1143367
"DUNMANWAY CONVENT INF, Dunmanway, Co. Cork","Sackville St, Brookpark, Dunmanway, Co. Cork, Ireland",51.7220296,-9.1074689
"LOWER GLANMIRE N S, New Inn, Glanmire","New Inn, Glanmire, Co. Cork, Ireland",51.9199733,-8.4128237
"S N AN CILLIN, Ballyshrule, Portumna","Fairyhill, Portumna, Co. Galway, Ireland",53.0927811,-8.2185406
"SN MUINE CHONALLAIN, Bonniconlon, Ballina","Ballina, Co. Mayo, Ireland",54.1149482,-9.1550693
"DULARGY MIXED N S, Dulargy, Ravensdale","Dulargy, Ravensdale, Broughattin, Dundalk, Co. Louth, Ireland",54.0427072,-6.331172
"KILLURNEY N S, Killurney, Clonmel","Ballypatrick, Cooloran, Clonmel, Co. Tipperary, Ireland",52.3963302,-7.6057904
"DELGANY N S, Delgany, Co. Wicklow","5 R762, Delgany, Co. Wicklow, Ireland",53.1324869,-6.0854894
"SCOIL CHROÍ RÓ NAOFA BEANNCHOR IORRAIS, Srahanarry, Bangor Erris","Srahanarry, Co. Mayo, Ireland",54.1460424,-9.7321632
"S N NAOMH IOSEF, Nymphsfield, Cong","Nymphsfield, The Derries, Co. Mayo, Ireland",53.5466127,-9.2796475
"ST VINCENTS CONVENT N S, Wolfe Tone Street, Cork","St Mary's Rd, Blackpool, Cork, Ireland",51.9056338,-8.4768445
"S N COLMCILLE, Leitir Móir, Co. na Gaillimhe","Inishlay, Lettermore, Co. Galway, Ireland",53.2887484,-9.6559437
"CASTLETOWNSEND MXD N S, Gurranes, Castletownshend","Gurranes, Castletownshend, Co. Cork, P81 VY73, Ireland",51.530754,-9.196616
"CLOHANES N S, Mullagh, Ennis","Cloonmore, Clohanes, Co. Clare, Ireland",52.76484,-9.4716701
"BURRANE N S, Burrane Upper, Killimer","Burrane Upper, Oaklands, Co. Clare, Ireland",52.6286843,-9.3618093
"RATH MIXED N S, Rath, Ballybrittas","Rathronshin, Ballybrittas, Co. Laois, Ireland",53.094432,-7.0923216
"RIVERSTOWN N S, Riverstown, Glanmire","St Josephs View, Riverstown, Glanmire, Co. Cork, Ireland",51.9305033,-8.3928825
"NAOMH PADRAIG N S, Muckerstaff, Coolarty","Muckerstaff National School, Killeen, Coolarty, Co. Longford, Ireland",53.7596139,-7.5565152
"GARTAN N S, Gartan, Letterkenny","Enterprise Fund Business Centre, Letterkenny, Co. Donegal, Ireland",54.961034,-7.711908
"TARMON N S, Tarmon, Castlerea","Castlerea, Ballinphuill, Castlerea, Co. Roscommon, Ireland",53.7708302,-8.4385414
"TEMPLEMARY N S, Carbad Beg, Killala","Templemary, stop 597351, Carbad Beg, Co. Mayo, Ireland",54.2337136,-9.2579278
"S N GORT AN EADAIN, Facefield, Claremorris","Clare, Claremorris, Co. Mayo, Ireland",53.7238764,-9.0017356
"ST PATRICKS N S, St Loman's Street, Trim","St Loman's St, Trim, Co. Meath, Ireland",53.5589635,-6.7913841
"S N DHROM ATHAIN, Dromahane, Mallow","Dromore, Dromahane, Co. Cork, Ireland",52.1056038,-8.6908349
"BREAFFY N S, Breaffy, Castlebar","Castlebar, Breaghwy, Castlebar, Co. Mayo, Ireland",53.8478372,-9.2380903
"BULGADEN N S, Bulgaden, Kilmallock","Bulgaden Eady, Bulgaden, Co. Limerick, V35 F589, Ireland",52.4226179,-8.5268126
"LECANVEY N S, Lecanvey, Westport","Westport, Co. Mayo, Ireland",53.8021307,-9.5143467
"S N NA CRANNAIGHE, Carrowreagh East, Cranny","Carrowreagh East, Cranny, Co. Clare, Ireland",52.6924765,-9.2254726
"CORCREAGH N S, Corcreagh, Shercock","Corcreagh School, Raferagh, Shercock, Co. Monaghan, Ireland",53.9913705,-6.8581469
"HOWTH RD MXD N S, Clontarf Road, Clontarf","Clontarf Rd, Clontarf, Dublin 3, D03 E166, Ireland",53.3639404,-6.2244934
"PRIMROSE HILL NS, Hazelhatch Road, Celbridge","Hazelhatch Rd, Donaghcumper, Celbridge, Co. Kildare, Ireland",53.3367795,-6.5369796
"S N NA NAOMH UILE, Knockbrack, Cleggan","Cleggan, Moorneen, Cleggan, Co. Galway, Ireland",53.556598,-10.1121917
"KILMIHIL N.S., Kilmihil, Co. Clare","Kilmihil National School, Church St, Kilmihil, Co. Clare, Ireland",52.7227439,-9.3191265
"DOUGLAS B N S, Douglas West, Cork","Douglas W, Douglas, Cork, Co. Cork, Ireland",51.8734671,-8.4417413
"MOYLOUGH N S, Moylough, Tubbercurry","Moylough National School, Moylough, Tobercurry, Co. Sligo, Ireland",54.0273351,-8.7046969
"CARRICK N S, Carrick, Curraghboy","Curraghboy, Athlone, Co. Westmeath, Ireland",53.4826978,-8.1072178
"HOLLYFORD N S, Curraheen, Hollyford","Clonmurragha, Hollyford Village, Co. Tipperary, Ireland",52.63253,-8.1114699
"BUSHY PARK N S, Circular Road, Bushy Park","Circular Rd, Bushypark, Galway, H91 AF57, Ireland",53.2902201,-9.0828763
"ROSCREA N S NO 2, Rosemount, Roscrea","Rosemount, Demesne, Roscrea, Co. Tipperary, Ireland",52.9547978,-7.7958523
"KILKISHEN N S, Kilkishen, Ennis","Kilkishen, Clonlea, Ennis, Co. Clare, Ireland",52.8049347,-8.7427017
"ROBERTSON N S, Lisminton, Ballintra","Glebe, Stranorlar, Co. Donegal, Ireland",54.8057681,-7.7629673
"MOVEEN N S, Kilkee, Co. Clare","Moveen National School, Moveen West, Kilkee, Co. Clare, Ireland",52.6434201,-9.6842176
"SLATTA N S, Moher, Kilglass","Cliffs of Moher, Lislorkan North, Co. Clare, Ireland",52.9715368,-9.4308824
"S N GLEANN NA MUAIDHE, Béal an Átha, Co. Mhaigh Eo","Pollboy, Glenamoy, Co. Mayo, Ireland",54.2409359,-9.6760341
"SHANBALLY N S, Shanbally, Ringaskiddy","Shanbally, Ringaskiddy, Co. Cork, Ireland",51.8309928,-8.3533741
"HEWETSONS N S, Millicent, Clane","Millicent Rd, Millicent North, Clane, Co. Kildare, W91 CA34, Ireland",53.2796731,-6.6932432
"BALLAGHAMEEHAN N S, Conray, Rossinver","R282, Conray, Co. Leitrim, Ireland",54.3818249,-8.1093407
"S N BUN AN TSABHAIRNE, Crosshaven, Co. Cork","Crosshaven, Co. Cork, P43 X242, Ireland",51.8023015,-8.2984303
"SCOIL NAOMH IOSEF, Ráthún, Bearna","Barna, Co. Galway, Ireland",53.251812,-9.1474685
"INISHBOFIN N S, Middlequarter, Inishbofin","Middlequarter, Inishbofin, Co. Galway, Ireland",53.6225349,-10.2192531
"ENNISCRONE N S, Enniscrone, Co. Sligo","Main Street, Carrowhubbuck South, Enniscrone, Co. Sligo, F26 Y3Y9, Ireland",54.2127105,-9.093793
"S N CILL MUIRE, Kilmurry, Sixmilebridge","Ieverstown, Sixmilebridge, Co. Clare, Ireland",52.7436246,-8.7776504
"S N BHRIDE, Leitir Caladh, Lettermore","Inishlay, Lettermore, Co. Galway, Ireland",53.2887484,-9.6559437
"ST MATTHIAS N S, Church Road, Ballydehob","1 Church Rd, Ballydehob, Co. Cork, P81 H735, Ireland",51.5635755,-9.467416
"S N NAOMH PADRAIG, Ballyfarnon, Boyle","Saint Patrick's National School, Alderford, Boyle, Co. Roscommon, Ireland",54.0680868,-8.1995193
"S N B TOGHER CORK, Togher Road, Cork","Togher Rd, Lehenagh Beg, Cork, T12 Y710, Ireland",51.8742279,-8.496312
"BIRDHILL N S, Birdhill, Killaloe","Gortybrigane, Birdhill, Co. Tipperary, Ireland",52.7674997,-8.4371207
"KILNAMANAGH Community National School, Knockskimolin, Outlart",.,.,.
"SCOIL NAOMH MHUIRE, Bishop Street, Cork","Bishop St, The Lough, Cork, Ireland",51.8949983,-8.4802333
"KNOCKACLARIG MXD N S, Knockaclarig, Brosna","Knockaclarig National School, Knockaclarig, Rockchapel, Co. Cork, Ireland",52.2757707,-9.2175235
"KILTEELY N S, Kilteely, Co. Limerick","Kilteely, Kilteely National School, Co. Limerick, Ireland",52.52134,-8.39866
"S N BHRIDE, Donaskeagh, Co. Tipperary","Donaskeagh, Co. Tipperary, Ireland",52.5220639,-8.0720785
"S N BAILE DEASMUMHAN, Church Road, Ballydesmond","Ballydesmond, Ballyhest East, Mallow, Co. Cork, Ireland",52.2008476,-8.8105421
"COACHFORD N S, Coachford, Co. Cork","Coachford National School, Glebe, Coachford, Co. Cork, Ireland",51.91035,-8.7927742
"CARNAIN N.S., Carnaun, Athenry","Carnaun, Athenry, Co. Galway, Ireland",53.3314719,-8.7889683
"CARYSFORT MXD N S, Knockanrahan, Arklow","Yellow Ln, Knockanrahan Lower, Arklow, Co. Wicklow, Ireland",52.7902449,-6.1642523
"WHITEHALL N S, Whitehall, Tarmonbarry","Ballygate, Whitehall, Co. Roscommon, Ireland",53.762471,-7.920863
"STOKANE NS, Stokane, Enniscrone","Muingwore, Stokane, Co. Sligo, Ireland",54.1777167,-9.0271201
"KANTURK B N S, Kanturk, Co. Cork","Kanturk, Co. Cork, Ireland",52.1772549,-8.9051669
"MOUNT TALBOT N S, Mount Talbot, Co. Roscommon","Mount Talbot National School, Mount Talbot, Co. Roscommon, Ireland",53.5302548,-8.2821942
"S N COILL AN BHAILE, Killawalla East, Westport","Killavally West, Killavally, Co. Mayo, Ireland",53.7590297,-9.3669277
"FEDAMORE N S, Ballyea, Fedamore","Fedamore, Castlequarter, Kilmallock, Co. Limerick, Ireland",52.5454956,-8.6051311
"DUN DEALGAN N S, Jocelyn Street, Dundalk","Jocelyn St, Jocelyn Dr, Townparks, Dundalk, Co. Louth, Ireland",54.0041244,-6.395264
"DRUMGOSSETT N S, Drumgossett, Carrickmacross","Drumgossatt National School, Drumgoosat, Carrickmacross, Co. Monaghan, Ireland",53.9518772,-6.7774505
"CASTLETARA N S, Castletara, Ballyhaise","Castletara, Lisdunvis Glebe, Ballyhaise, Co. Cavan, Ireland",54.0304494,-7.2917171
"S N MOLUA B, Cross, Ardagh","Minister's-Land, Ardagh, Co. Limerick, Ireland",52.4951415,-9.0583182
"CASTLETOWNROCHE N S, Close Road, Castletownroche","Close Rd, Castlewidenham, Co. Cork, Ireland",52.1719763,-8.4685114
"CROSS N S, Kilrush, Co. Clare","Cross National School, Cross, Co. Clare, Ireland",52.5989632,-9.7753535
"KILBRITTAIN MIXED N S, Kilbrittain, Co. Cork","Kilbrittain National School, Glanduff, Kilbrittain, Co. Cork, Ireland",51.6731214,-8.6946363
"S N LIOS MOR MOCHUDA, North Mall, Lismore","N Mall, Lismore, Lios Mór, Co. Port Láirge, Ireland",52.1393512,-7.9297517
"HOLMPATRICK N S, Convent Lane, Skerries","Holmpatrick, Skerries, Co. Dublin, Ireland",53.5796951,-6.1075289
"POULACAPPLE N S, Mullinahone, via Callan","Poulacapple East, Poulacapple, Co. Tipperary, Ireland",52.5002568,-7.4359953
"BARNATRA N S, Barnatra, Ballina","Barnatra, Rinnashinnagh, Ballina, Co. Mayo, Ireland",54.222187,-9.8506813
"S N Dhumha Thuama, Dumha Thuama, Béal an Átha","Tullaghanbaun, Doohooma, Co. Mayo, Ireland",54.0736741,-9.9311755
"SCOIL CHOLMCILLE, An Tearmann, Co. Dhún na nGall","Scoil Cholmcille, Currin, Termon, Co. Donegal, Ireland",55.049512,-7.832257
"S N MAINISTIR MUIGHEO, Lehanagh, Mayo Abbey","Lehanagh, Cnoc Na Niúr, Co. Mayo, Ireland",53.7775617,-9.1252149
"SN CHILL SARAIN, Kilsaran, Castlebellingham","Kilsaran, Milestown, Castlebellingham, Co. Louth, Ireland",53.8863234,-6.38817
"S N LATHRACH 2, Muff, Kingscourt","Laragh Church, Laragh, Kingscourt, Co. Cavan, Ireland",53.9025687,-6.8620699
"SCOIL BHRIDE, Greenmount Road, Ballydehob","Scoil Bhride, Ballydehob, Co. Cork, Ireland",51.5604538,-9.4595665
"KILCOE NS, Kilcoe, Skibbereen","Church Cross, Murrahin South, Skibbereen, Co. Cork, Ireland",51.5597449,-9.3903764
"NICKER N S, Nicker, Pallasgreen","Nicker, Pallasgreen, Co. Limerick, Ireland",52.5610125,-8.3456678
"CALLYSTOWN MIXED N S, Callystown, Clogherhead","Callystown, Clogherhead, Co. Louth, Ireland",53.7916269,-6.2435066
"S N MHUIRE, Danescastle, Carrig-on-Bannow","Danescastle, Co. Wexford, Ireland",52.2385344,-6.7321656
"CILL MHOR IORRAIS, Binghamstown, Belmullet","Binghamstown, Co. Mayo, Ireland",54.2063795,-10.0354122
"ABBEYLEIX STH N S, Ballacolla Road, Abbeyleix","Ballacolla Rd, Knocknamoe, Abbeyleix, Co. Laois, Ireland",52.910751,-7.354767
"JONATHAN SWIFT NS, Dunlavin, Co. Wicklow","Dunlavin Upper, Dunlavin, Co. Wicklow, Ireland",53.0578764,-6.7016395
"S N PADRAIG NAOFA, Lisheen, Williamstown",.,.,.
"SCOIL NAOMH PADRAIG, Knockroon, Headford","Headford, Co. Galway, Ireland",53.4694617,-9.106134
"SCOIL NAOMH BRID, Ballycastle, Co. Mayo","Ballycastle, Co. Mayo, Ireland",54.2788385,-9.3717337
"BRIERFIELD N SCHOOL, Brierfield, Tuam","Brierfield, Tuam, Co. Galway, Ireland",53.4659021,-8.6636188
"KILLASONNA MIXED N S, Killasonna, Granard","Granard, Co. Longford, Ireland",53.7468214,-7.4771401
"S N CLEIRE, Oileán Chléire, An Sciobairín","Oileán Chléire, Keenleen, Co. Cork, P81 FY05, Ireland",51.4353813,-9.4983063
"BALLYLANDERS N S, Main Street, Ballylanders","Ballylanders, Kilmallock, Co. Limerick, V35 R9X8, Ireland",52.3708888,-8.3464216
"CORLEA N S, Corlea, Kingscourt","Corlea, Co. Cavan, Ireland",53.939755,-6.8641595
"SEARCOG I N S, Kingscourt Road, Shercock","Kingscourt Rd, Co. Cavan, Ireland",53.990857,-6.8899206
"AUGHAVAS NS, Aughavas, Carrigallen","Aghavas, Co. Leitrim, Ireland",53.9555396,-7.7177963
"CARRICKLECK N S, Carrickleck, Kingscourt","Carrickleck, Co. Meath, Ireland",53.8702298,-6.7648707
"LISANISKEY N S, Ballymacfarrane, Donamon","Lissanisky, Co. Roscommon, Ireland",53.6587921,-8.339078
"LOUGHFOUDER N S, Knocknagoshel, Tralee","Lackbrooder, Loughfouder, Co. Kerry, Ireland",52.28943,-9.3589001
"S N CILL CONAILL, Corraneena, Kilconnell","Abbeyfield, Kilconnell, Co. Galway, Ireland",53.3314659,-8.4014327
"S N PADRAIG NAOFA, Ballaghlea, Ballygar","Ballaghlea, stop 550171, Cloonascarberry (Cheevers), Co. Galway, Ireland",53.5122875,-8.3867305
"STONEPARK N S, Stonepark, Co. Longford","Stonepark, Co. Longford, Ireland",53.6942954,-7.8200749
"S N CILL FHEICIN, Rakerin, Gort",.,.,.
"GLEBE NS, Church Hill, Wicklow Town","Church Hill, Corporation Land (1st Division), Wicklow, Ireland",52.983138,-6.0465791
"KILLYGARRY N S, Killygarry, Co. Cavan","Kilgarry, Edenticlare, Kilgarry, Co. Cavan, Ireland",53.9864853,-7.3051518
"SCOIL NEASSAIN, Mungret, Co. Limerick","Baunacloka, Mungret, Co. Limerick, Ireland",52.6309647,-8.6683006
"S N NAOMH PADRAIG, Gorteennaglogh, Renvyle","Renvyle, Tully, Co. Galway, Ireland",53.5951968,-9.957941
"S N ARD, Aird Thiar, Carna",.,.,.
"KNOCKAVILLA N S, Killenure, Dundrum","Killenure, Dundrum, Co. Tipperary, E34 TY07, Ireland",52.5446132,-8.003851
"DERRYCREHA N S, Derrycreha, Glengarriff","Glengarriff Rd, Town Lots, Bantry, Co. Cork, Ireland",51.6819171,-9.447778
"ABBEYSTREWRY N S, Castletownsend Road, Skibbereen","Castletownsend Rd, Carrigfadda, Skibbereen, Co. Cork, Ireland",51.5409415,-9.261122
"CLOUGHANOWER N S, Cloughanover, Headford","Headford, Cloghanower, Headford, Co. Galway, Ireland",53.4455916,-9.0951459
"ST FEIGHANS MXD N S, Fore, Castlepollard","Collinstown, Fore Abbey, Co. Westmeath, Ireland",53.64722,-7.208201
"KILLEA N S, Killea, Templemore","Killea, Templemore, Co. Tipperary, Ireland",52.8236279,-7.8768842
"ST COLUMBAS N S MXD, North Strand, Dublin 3","Waterloo Ave, North Strand, Dublin, D03 NH34, Ireland",53.3587102,-6.2423326
"KILMALEY N S, Kilmaley, Ennis","Kilmaley National School, Knockmoy, Ennis, Co. Clare, Ireland",52.8203269,-9.1099755
"WANDESFORDE MIXED N S, Castlecomer, Co. Kilkenny","Castlecomer, Co. Kilkenny, Ireland",52.8057271,-7.2060448
"CURRACLOE N S, Curracloe, Enniscorthy","Barnahask, Curracloe, Co. Wexford, Ireland",52.3930238,-6.3921661
"S N B CURNANOOL, Cornanool, Castlebar","Unnamed Road, Cornanool, Castlebar, Co. Mayo, Ireland",53.8525207,-9.357234
"SCOIL MHUIRE B&C, Na Doirí Beaga, Leitir Ceanainn",.,.,.
"GORTJORDAN N S, Kilmaine, Claremorris","Kilmaine, Claremorris, Co. Mayo, Ireland",53.5493175,-9.1538355
"ST ENDAS PRIMARY SCHOOL, Whitefriar Street, Dublin 8","Whitefriar Pl, Saint Peter's, Dublin 8, Ireland",53.3403906,-6.2665964
"KILLEA BOYS N S, Dunmore East, Co. Waterford","Killea, Dunmore East, Co. Waterford, Ireland",52.1653965,-7.0055551
"TOMGRANEY N S, Tuamgraney, Co. Clare","Ballyquin, Tuamgraney, Co. Clare, Ireland",52.8985172,-8.541013
"SCOIL NAOMH FAINCHE, School Lane, Collon",.,.,.
"CARYSFORT NS, Convent Road, Blackrock","Convent Rd, Blackrock, Co. Dublin, Ireland",53.297112,-6.183017
"AINBHTHIN NAOFA, Rosscahill East, Rosscahill","Rosscahill, Rosscahill East, Rosscahill, Co. Galway, Ireland",53.390619,-9.2493966
"EIDHNEACH N S, Carrowkeel, Inagh","Carrowkeel East, Inagh, Co. Clare, Ireland",52.8769834,-9.1767645
"DOON CONVENT N S, Doon, Co. Limerick","Lisgaugh, Doon, Co. Limerick, Ireland",52.6043292,-8.2478393
"SCOIL CHOLMCHILLE, Ballymena, Glengad","Glengad, Co. Donegal, Ireland",55.3306786,-7.2114791
"CARRAROE N S, Tonafortes, Carraroe","Tullynagracken South, Co. Sligo, Ireland",54.2447445,-8.4749072
"S N MHUIRE, Fiddaun, Ardrahan","Fiddaun, Co. Galway, Ireland",53.1692451,-8.7512415
"S N NA CLOICHE MOIRE, Ballyraggan, Rathvilly","Ballyraggan, Rathvilly, Co. Carlow, Ireland",52.8969211,-6.7687799
"DALKEY N S (2), Harbour Road, Dalkey","2 Harbour Rd, Glenageary, Dalkey, Co. Dublin, A96 V304, Ireland",53.2834255,-6.1045968
"CLOONTAGH MIXED N S, Cloontagh, Killashee","R398, Cloontamore, Co. Longford, N39 RF60, Ireland",53.6368604,-7.894289
"CASTLETOWN RD CONVENT, Castletown Road, Dundalk","Castletown Rd, Moorland, Dundalk, Co. Louth, Ireland",54.0142023,-6.4178772
"BALLAGHKEENE N S, Ballaghkeane, Enniscorthy","Ballaghkeen, Enniscorthy, Co. Wexford, Ireland",52.4813346,-6.428579
"COLEHILL MIXED N S, Colehill, Co. Longford","Streamstown, Colehill, Co. Longford, Ireland",53.5980557,-7.6796154
"S N BAILE BUILEARAIGH, Butlerstown, Co. Waterford","Butlerstown, Hillcrest Grove, Co. Waterford, Ireland",52.2295939,-7.1781459
"AUGHRIM N S, Hillstreet, Carrick-on-Shannon","Aughrim National School, Aughrim, Carrick-On-Shannon, Co. Roscommon, Ireland",53.871787,-8.1224211
"MURROE NATIONAL SCHOOL, Murroe, Dunfanaghy","Murroe National School, Magheramenagh, Murroe Upper, Co. Donegal, Ireland",55.1536474,-8.011524
"SN AN FHAIRCHE, An Fháirche, via Clár Chlainne Mhuiris","Cloonbur, Clonbur, Co. Galway, Ireland",53.5451643,-9.3643582
"RATHGAR N S, Rathgar Avenue, Dublin 6","Rathgar Ave, Rathfarnham, Dublin 6, Ireland",53.3140809,-6.275432
"SCOIL RONAIN, Oileán Trá Bhán, Leitir Móir","Scoil Ronain, Killeany, Inishmore, Co. Galway, Ireland",53.1230091,-9.6681197
"KINSALE N S, Knocknabohilly, Kinsale","Knocknabohilly, Cork, P17 AF10, Ireland",51.7099803,-8.5144732
"SCOIL BHRIDE, Mountnugent, Co. Cavan","Mountnugent, Co. Cavan, Ireland",53.8185511,-7.2532887
"AGHACASLA N S, Aughacasla, Camp","Aughacasla South, Aughacasla, Co. Kerry, Ireland",52.2366,-9.97892
"KILMYSHALL N S, Kilmyshall, Bunclody","Kilmyshall, Bunclody, Co. Wexford, Ireland",52.6273204,-6.6559469
"DUNMANWAY BOYS SENIOR NATIONAL SCHOOL, Dunmanway, Co. Cork","Sackville St, Brookpark, Dunmanway, Co. Cork, Ireland",51.7220296,-9.1074689
"CAPPAWHITE N S, Cappagh, Cappawhite","Cappagh, Cappagh White, Co. Tipperary, Ireland",52.5822151,-8.164659
"IRISHTOWN N S, Claremorris, Co. Mayo","Irishtown National School, Ballinvilla, Irishtown, Co. Mayo, Ireland",53.6625737,-8.8902577
"ROSCARBERY CON N S, Ardagh East, Rosscarbery","Townlands, Rosscarbery, Co. Cork, Ireland",51.5803726,-9.0296174
"SCOIL LACHTAIN NAOFA, Cill na Martra, Maigh Chromtha","Caherkereen, Kilnamartyra, Co. Cork, Ireland",51.90026,-9.08222
"Scoil San Eoin, Redcross, Co. Wicklow","Ballygillaroe, Redcross, Co. Wicklow, Ireland",52.889744,-6.1452741
"BAREFIELD MIXED N S, Barefield, Ennis","Barefield, Ennis, Co. Clare, Ireland",52.890303,-8.944164
"S N PEADAR AGUS POL, Ballon, Co. Carlow","Ballon, Co. Carlow, Ireland",52.7391042,-6.7697839
"MARYBORO N S, Summerhill, The Downs","Stradbally Rd, Moneyballytyrrell, Portlaoise, Co. Laois, Ireland",53.0345008,-7.2927694
"CLONDROHID N S, Clondrohid, Macroom","Clondrohid, Garranenagappul, Macroom, Co. Cork, Ireland",51.9286686,-9.021698
"ACHILL SOUND CONVENT NS, The Points, Achill Sound","Achill Sound Convent National School, Illanbelfarsad, The Points, Co. Mayo, Ireland",53.9288698,-9.9285862
"DOOKINELLA N.S., Low River, Dookinella","Dookinella, Dookinelly (Calvy), Co. Mayo, Ireland",53.9806009,-10.0429704
"DRUMEELA N S, Drumeela, Carrigallen PO","Drumeela, Carrigallen, Co. Leitrim, Ireland",54.0160688,-7.6595976
"GUSSERANE N S, Gusserane, New Ross","Gusserane, Ballygarvan, New Ross, Co. Wexford, Ireland",52.3083331,-6.8597696
"ST JOSEPHS N S, Kilmuckridge, Gorey","Kilmuckridge, Co. Wexford, Ireland",52.5087867,-6.2884196
"ST LEONARDS N S, St. Leonards, Ballycullane","St Leonards, Ballycullane, Co. Wexford, Ireland",52.2803179,-6.8397818
"St Mary's National School, Castlefinn, Lifford","16 Ballyduff Park, Lifford, Co. Donegal, F93 AT1X, Ireland",54.83551,-7.4829606
"ZION PARISH PRIMARY SCHOOL, Bushy Park Road, Rathgar","1 Bushy Park Rd, Rathfarnham, Rathgar, Co. Dublin, 6, Ireland",53.3078865,-6.2746433
"S N NAOMH EOIN, Ballinameen, Boyle","Ballinameen, Ballinvilla, Boyle, Co. Roscommon, Ireland",53.9165115,-8.1703062
"RATHFARNHAM PARISH N S, Washington Lane, Rathfarnham","Washington Grove, Rathfarnham, Dublin 14, Ireland",53.2934227,-6.3034082
"RAY N S, Ray, Manorcunningham","Rays National School, Labbadish, Manorcunningham, Co. Donegal, F92 YY86, Ireland",54.9378818,-7.6177821
"MUIRE GAN SMAL, Old Chapel Lane, Castleisland","Old Chapel Ln, Chapel Quarter, Castleisland, Co. Kerry, V92 P803, Ireland",52.2302163,-9.4610534
"KILTEEVAN N S, Kilteevan, Co. Roscommon","Aghmagree, Co. Roscommon, F42 YY76, Ireland",53.6355277,-8.1149078
"ALL SAINTS NATIONAL SCHOOL, Carnew, Co. Wicklow","All Saints' National School, Main St, Carnew, Co. Wicklow, Ireland",52.7097836,-6.4998843
"GLASNEVIN N S, Botanic Avenue, Glasnevin","9 Botanic Ave, Botanic, Dublin, Ireland",53.372602,-6.267441
"S N AN CHLOCHAN, An Clochán, Co. Chiarraí","Drom West, Cloghane, Co. Kerry, Ireland",52.2304787,-10.1824514
"PASSAGE EAST N S, Crooke, Passage East","Crooke, Passage East, Co. Waterford, Ireland",52.2316468,-6.9739433
"S N RAE NA NDOIRI, Rae na nDoirí, Maigh Chromtha","Reananerree, Macroom, Co. Cork, Ireland",51.9009031,-9.1611976
"LYRE A CROMPANE N S, Glashanacree, Lyracrompane","Glashanacree, Co. Kerry, Ireland",52.3510945,-9.4850133
"SCOIL ASICUS, Golf Course Road, Strandhill","Strandhill, Carrowbunnaun, Sligo, Ireland",54.267065,-8.6018852
"SHRONELL N S, Lattin, Co. Tipperary","Shronell More, Co. Tipperary, E34 KH30, Ireland",52.4703893,-8.250067
"CORCLOUGH NS, Corclogh West, Belmullet","Corclough House, Corclogh, Belmullet, Co. Mayo, Ireland",54.2099572,-9.9755341
"S N NA HEAGLAISE, Ahascragh, Ballinasloe","Ballinasloe, Co. Galway, Ireland",53.3287621,-8.2269467
"ST MARYS N S, Aghamore, Ballyhaunis","Aghamore Community Housing, Cornageaghta, Ballyhaunis, Co. Mayo, Ireland",53.8260502,-8.8203663
"S N MUIRE GAN SMAL, Ceathrú Thaidhg, Béal Átha an Fheadha","Carrowteige, Co. Mayo, Ireland",54.3131114,-9.8127032
"S N TREASA NAOFA MXD, Castletown, Kilflynn","Castletown, Kilflynn, Co. Kerry, Ireland",52.3505422,-9.6253164
"MERCY CONVENT PRIMARY SCHOOL, Sallins Road, Naas","Sallins Rd, Naas West, Naas, Co. Kildare, Ireland",53.2212924,-6.663386
"ENNIS N S, Ashline, Kilrush Road","11 Kilrush Rd, Cahircalla Beg, Ennis, Co. Clare, Ireland",52.830132,-9.001301
"Scoil Na nAingeal Naofa, Carrick Road, Boyle","Carrick Rd, Knocknashee, Co. Roscommon, Ireland",53.9718467,-8.2998576
"S N NAOMH PADRAIG, Elphin Street, Strokestown","Elphin St, Co. Roscommon, Ireland",53.7804071,-8.1039865
"ST STEPHENS N S, 25 Patrick Street, Waterford","25 Patrick St, Waterford, X91 P03F, Ireland",52.2599331,-7.1144255
"S N SAN VINSEANN CAILIN, North William Street, Dublin 1","William St N, Dublin, Ireland",53.3572087,-6.2465505
"S N CILLINI DIOMA, Killeendeema East, Loughrea","Loughrea, Co. Galway, Ireland",53.1989136,-8.5660931
"KNOCKBRIDGE MIXED N S, Knockbridge, Dundalk","Ballinclare, Knockbridge, Co. Louth, Ireland",53.9730132,-6.4854126
"SCOIL BHRÍDE, Cannistown, Navan","Stonestown, Cannistown, Co. Meath, Ireland",53.60307,-6.81816
"S N SHEAMAIS, Barnacogue, Swinford","Barnacogue, Barnacahoge, Swinford, Co. Mayo, Ireland",53.9182124,-8.8670644
"ARDVARNEY MXD N S, Cashel, Dromahair","Ardvarney, Co. Leitrim, Ireland",54.2197926,-8.2595437
"KILLYCONNAN N S, Stradone, Co. Cavan","Stradone, Corrawillin, Stradone, Co. Cavan, Ireland",53.9631646,-7.2577932
"ST BERNARDS MIXED N S, Abbeylara, Co. Longford","Abbeylara, Granard, Co. Longford, Ireland",53.7714239,-7.4562322
"HAROLD BOYS N S, St. Patrick's Road, Dalkey","St Patrick's Rd, Dalkey, Co. Dublin, Ireland",53.2783949,-6.1036855
"BANTRY BOYS SENIOR NATIONAL SCHOOL, Seskin, Bantry","Sheskin, Bantry, Co. Cork, Ireland",51.67737,-9.4401248
"BALLINGREE MXD N S, Ballinagree, Macroom,","Macroom, Sleveen East, Macroom, Co. Cork, Ireland",51.9048039,-8.9588478
"NAOMH MICHEAL, Donaghmoyne, Carrickmacross","Donaghmoyne, Carrickmacross, Co. Monaghan, Ireland",54.0128702,-6.6887836
"LISDOONAN N S, Lisdonnan, Carrickmacross","Lisdoonan, Carrickmacross, Co. Monaghan, Ireland",54.0287153,-6.7522415
"NAOMH DOMINIC N S, Kenagh, Co. Longford","Saint Dominic's National School, Aghnacranagh, Keenagh, Co. Longford, Ireland",53.6249201,-7.8187222
"MOUNT BRUIS N S, Mount Bruis, Tipperary Town","Bruis, Mount Bruis, Co. Tipperary, Ireland",52.45193,-8.24208
"THE ROWER MIXED N S, The Rower, Thomastown","The Rower National School, Raheenduff, The Rower, Co. Kilkenny, Ireland",52.4527879,-6.9616488
"BALLINTOTAS N S, Ballintotis, Castlemartyr","Castlemartyr, Ballintotis, Castlemartyr, Co. Cork, Ireland",51.9094013,-8.0957957
"CASHELSHANAGHAN N S, Ballymaleel, Letterkenny","Ballymaleel, Letterkenny, Co. Donegal, Ireland",55.0004458,-7.6610273
"CARRIGDUFF NAT SCHOOL, Carrigduff, Bunclody","Carrigduff, Bunclody, Co. Wexford, Y21 TP49, Ireland",52.656986,-6.665168
"NAOMH CAILLIN, Commons, Fenagh","Fiodhnach, Foxfield, Corlough, Carrick-on-shannon, Co. Leitrim, Ireland",54.0266876,-7.8602786
"Scoil an tStratha Mhóir, Mín an Lábáin, Leitir Ceanainn","Letterkenny, Co. Donegal, Ireland",54.9558392,-7.7342787
"ARDKEERIN N S, Ardeeran, Riverstown","Cuiltylough, Fannybrook, Co. Sligo, Ireland",54.1287649,-8.3957994
"ANNAGH N S, Annagh, Miltown Malbay","Annagh, Co. Clare, V95 NP38, Ireland",52.8220525,-9.41445
"CAHERLINE N S, Caherline, Caherconlish","Caherline, Caherconlish, Co. Limerick, Ireland",52.5686741,-8.4538045
"ST PATRICKS GIRLS NS, Cambridge Road, Ringsend","3A Cambridge Rd, Dublin, Co. Dublin City, Ireland",53.3433566,-6.2255493
"DON N S, Ballaghadereen, Co. Roscommon","Cortoonmore, Cartron More, Ballaghaderreen, Co. Roscommon, Ireland",53.862433,-8.5437711
"QUIGNAMANGER N S, Creggs Road, Ballina","Creggs Rd, Quignamanger, Ballina, Co. Mayo, Ireland",54.1316662,-9.1302466
"S N N MAOLMHAODHAGH C, Anne Stret, Dundalk","Dundalk, Co. Louth, Ireland",53.9979451,-6.405957
"S N N MAOLMHAODHAGH N, Anne Street, Dundalk","Anne St, Dundalk, Co. Louth, Ireland",54.0008006,-6.407115
"CLOONEY N S, Carrahan, Tulla","Clooney National School, Knockanoura, Carrahan, Tulla, Co. Clare, Ireland",52.8711731,-8.8615103
"TANEY N S, Sydenham Villas, Dundrum","Sydenham Villas, Dundrum, Dublin 14, Ireland",53.288738,-6.2381874
"SC NA GCREAGACHA DUBHA, Sandy Lane, Blackrock","South Carolina, USA",33.836081,-81.1637245
"STREAMSTOWN MIXED N S, Streamstown, Co. Westmeath","Streamstown, Mullingar, Co. Westmeath, Ireland",53.6318169,-7.2907143
"GAILE N S, Holycross, Thurles","Holycross, Gaile, Thurles, Co. Tipperary, Ireland",52.6031026,-7.8672223
"KILDYSART N S, Ennis Road, Kildysart","Ennis Rd, Lackannashinnagh, Kildysart, Co. Clare, Ireland",52.6769373,-9.1038959
"DALYSTOWN N S, Dalystown, Mullingar","Higginstown, Dalystown, Co. Westmeath, Ireland",53.4351959,-7.3855842
"ATHLEAGUE N S, Athleague, Co. Roscommon","Athleague, Co. Roscommon, Ireland",53.5680369,-8.2493809
"ST GEORGES N S, Naul Road, Balbriggan","Naul Rd, Clogheder, Balbriggan, Co. Dublin, Ireland",53.6072119,-6.2039158
"GLENBEG N S, Glenbeg, Dungarvan","Glenbeg National School, Glenbeg, Dungarvan, Co. Waterford, Ireland",52.0702475,-7.6782771
"ST MICHAELS NS, Sexton Street, Limerick","Christian Brothers School Grounds, Sexton St, Limerick, Ireland",52.6589813,-8.6227167
"CLONBULLOGUE N S, Clonbullogue, Co. Offaly","Clonbullogue National School, Church Rd, Clonbulloge, Co. Offaly, Ireland",53.2626479,-7.0862525
"BUN SCOIL LOUIS NAOFA, Cloughvalley, Carrickmacross","Bunscoil Louis Naofa, Cloughvalley, Cloghvally Upper, Carrickmacross, Co. Monaghan, Ireland",53.977667,-6.7148328
"S N BAILE NUA, Baile Nua, Maigh Cuilinn","Newtown, Co. Galway, Ireland",53.3520418,-9.2265077
"S N MHUIRE, Castlegal, Cliffoney","Caislean Geal, Cartronkillerdoo, Cliffony, Co. Sligo, Ireland",54.4301796,-8.4541397
"CARIGEEN N S, Carrigeen, Co. Kilkenny","Carrigeen, Waterford, Co. Kilkenny, X91 F656, Ireland",52.2703638,-7.2155385
"S N NAOMH MHUIRE, Knockconor, Keash","Scoil Naomh Mhuire, Knockoconor, Kesh, Co. Sligo, Ireland",54.0482341,-8.4482228
"Scoil Abán Naofa, Baile Mhúirne, Maigh Chromtha","Scoil Aban Naofa, Killeen, Ballymakeery, Co. Cork, Ireland",51.9375929,-9.1490655
"STONEHALL N S, Stonehall, Newmarket-on-Fergus","Stonehall National School, Stonehall, Newmarket On Fergus, Co. Clare, Ireland",52.7252027,-8.9100871
"CAMOLIN N S, Camolin, Enniscorthy","Camolin, Enniscorthy, Co. Wexford, Ireland",52.6152643,-6.4262436
"SHILLELAGH NO 1 N S, Ballard, Shillelagh","Ballard, Shillelagh, Co. Wicklow, Y14 VH31, Ireland",52.7547231,-6.5399277
"S N MICHIL NAOFA, Mullinahone, Thurles","Mullinahone, Co. Tipperary, Ireland",52.512722,-7.5036823
"RIVERCHAPEL N S, Riverchapel, Gorey","Seamount, Riverchapel, Co. Wexford, Y25 DE28, Ireland",52.6384674,-6.2348684
"KILLALOE BOYS N S, Convent Hill, Killaloe","Killaloe, Shantraud, Killaloe, Co. Clare, Ireland",52.8044032,-8.4446307
"ROCKFIELD N S, Coolney, Co. Sligo","Coolaney, Co. Sligo, Ireland",54.1738093,-8.6008023
"DROMAGH MIXED N S, Dromagh, Mallow","Dromagh National School, Mallow, Co. Cork, Ireland",52.1344259,-8.9504724
"DRUMLEASE N S, Drumlease, Dromahair","Drumlease, Co. Leitrim, Ireland",54.2255201,-8.2927581
"MOUNT BOLUS N S, Mount Bolus, Tullamore","10 St Brigid's Terrace, Rathkeeragan, Mountbolus, Co. Offaly, R35 X584, Ireland",53.1933154,-7.6257294
"SN BAILE THOMAIS, Ballythomas, Gorey","Thomas St, Gorey corporation lands, Gorey, Co. Wexford, Ireland",52.6760778,-6.2951133
"CONNOLLY N S, Connolly, Ennis","Ennis, Co. Clare, Ireland",52.8474255,-8.9887384
"KILCROHANE N S, Kilcrohane, Bantry","Kilcrohane, Bantry, Co. Cork, Ireland",51.5809613,-9.7029974
"BRIDESWELL N S, Brideswell, Athlone","Brideswell, Athlone, Co. Roscommon, N37 P838, Ireland",53.4528278,-8.0890766
"OULART N S, Oulart, Gorey","Kyle, Co. Wexford, Ireland",52.5028226,-6.3899756
"BALLYCANEW N S, Ballycanew, Gorey","Gorey Rd, Ballycanew, Gorey, Co. Wexford, Ireland",52.6103837,-6.3055556
"FAIRYMOUNT N S, Fairymount, Castlerea","Grallagh, Fairymount, Co. Roscommon, F45 AK07, Ireland",53.8466775,-8.4847923
"KILLAVILLE N S, Killavil, Ballymote","Ballymote, Ardminnan, Ballymote, Co. Sligo, Ireland",54.0386376,-8.5535656
"TRUMMERA N S, Tromaire, Maighean Rátha","Mountrath, Spahill, Co. Laois, Ireland",52.995014,-7.4675763
"KILDALLON N S, Kildallan, Ballyconnell","Ardlougher House, Carn, Ballyconnell, Co. Cavan, Ireland",54.0661185,-7.5500298
"BALLYSHANNON N S, Ballyshannon, Kilcullen","Ballyshannon Lodge, Ballyshannon, Kilcullen, Co. Kildare, Ireland",53.0874694,-6.8147291
"KILCONLY N S, Kilconly, Tuam","Main Street, Ballynagittagh, Kilconly, Co. Galway, H54 N529, Ireland",53.5731309,-8.9777719
"ST LOUIS N S, Rathkenny, Navan","St. Louis, MO, USA",38.6270025,-90.1994042
"GLOUNTHAUNE MIXED N.S., Glounthane, Co. Cork","Ballynaroon, Glounthaune, Co. Cork, Ireland",51.9139625,-8.3418162
"LEAFFONEY N S, Leaffoney, Kilglass","Leaffoney Rd, Leaffony, Kilglass, Co. Sligo, Ireland",54.2564848,-9.0301057
"KILLINKERE N S, Corratinner, Virginia","Corratinner, Virginia, Co. Cavan, A82 T959, Ireland",53.8861844,-7.0688276
"ST BRIGID'S PRIMARY SCHOOL, Station Road, Moate","21-19 Station Rd, Cartronkeel, Co. Westmeath, N37 PC78, Ireland",53.3979743,-7.7236847
"CLONPRIEST N S, Youghal, Co. Cork","Clonpriest National Scool, Gortaroo, Youghal, Co. Cork, Ireland",51.9295913,-7.922309
"S N NAOMH IOSEF, Convent Road, Kinvara","Convent Rd, Kinvarra, Co. Galway, Ireland",53.140007,-8.9441598
"SCOIL MHUIRE,, Newtown, Ballinasloe","Newtown, Creagh, Ballinasloe, Co. Roscommon, H53 V270, Ireland",53.3586413,-8.2132763
"CROAGHROSS N S, Portsalon, Letterkenny","Croaghross, Harbour View, Co. Donegal, Ireland",55.2108913,-7.626658
"S N BAILE FINN, Ballyfin, Portlaoise","Portlaoise, Co. Laois, Ireland",53.0328123,-7.2987933
"ST JOHNS NS, Logboy, Tulrahan","Logboy, Ballynastockagh, Tulrahan, Co. Mayo, Ireland",53.7125006,-8.790594
"BALLYDUFF B 2 N S, Ballyduff, Co. Waterford","Ballyduff, Ballyduff Lower, Ballyduff, Co. Waterford, Ireland",52.1423368,-8.0511942
"TIBOHINE N S, Teevnacreeva, Tibohine","National School, Teevnacreeva, Tibohine, Co. Roscommon, Ireland",53.8859388,-8.503709
"CASTLEPLUNKETT N S, Castleplunkett, Castlerea","Scoil Ciaran Naomh, Rusheen, Castlerea, Co. Roscommon, Ireland",53.7513523,-8.3471035
"BALLYHEEDA N S, Ballinhassig, Co. Cork","Ballinhassig, Skehanagh, Baile Shíoda, Co. Cork, Ireland",51.7927242,-8.5717234
"GORTNACART N S, Gortnacart, Ardara","Ardara, Co. Donegal, Ireland",54.7646499,-8.3660025
"SCOIL CHOLMCILLE, Breaffy, Ballina","Breaffy, Ballina, Co. Mayo, Ireland",54.0855226,-9.1053149
"PRESENTATION PRIMARY SCHOOL, Station Road, Portarlington","Presentation Primary School, Station Rd, Bracklone, Portarlington, Co. Laois, Ireland",53.1532666,-7.1816175
"CLOONFAD N S, Cloonfad, Ballyhaunis","Fiddaun, Cloonfad, Co. Roscommon, Ireland",53.6867556,-8.7518199
"BISHOP HARTY NS, Ballinree, Nenagh","Ballinree, Nenagh, Co. Tipperary, Ireland",52.8683371,-8.0946265
